City_ID,City,Country,Lat,Lng,Max Temp,Humidity,Cloudiness,Wind Speed,Current Description
0,Albany,US,42.6001,-73.9662,92.8,58,70,7.02,broken clouds
1,Norman Wells,CA,65.282,-126.8329,62.64,77,75,4.61,broken clouds
2,Clyde River,CA,70.4692,-68.5914,41.23,93,75,17.27,broken clouds
3,Ushuaia,AR,-54.8,-68.3,37.06,93,75,12.66,drizzle
4,Praya,CV,14.9215,-23.5087,84.74,54,20,13.8,few clouds
5,Mtsensk,RU,53.2766,36.5733,61.27,71,19,6.06,few clouds
6,Urumqi,CN,43.801,87.6005,74.35,41,0,2.24,clear sky
7,Lagoa,PT,39.05,-27.9833,73.71,79,81,1.74,broken clouds
8,Mar Del Plata,AR,-38.0023,-57.5575,53.62,54,0,10.36,clear sky
9,Nikolskoye,RU,59.7035,30.7861,67.01,79,2,5.53,clear sky
10,Fomboni,KM,-12.28,43.7425,77.52,75,0,11.95,clear sky
11,Airai,TL,-8.9266,125.4092,56.23,52,5,3.65,clear sky
12,Rikitea,PF,-23.1203,-134.9692,74.08,78,0,7.09,clear sky
13,Pacific Grove,US,36.6177,-121.9166,86.81,82,1,5.99,clear sky
14,Tadine,NC,-21.55,167.8833,66.18,67,100,13,overcast clouds
15,Busselton,AU,-33.65,115.3333,48.09,87,21,2.35,few clouds
16,Port Hardy,CA,50.6996,-127.4199,66.38,77,20,3.44,few clouds
17,Chute-Aux-Outardes,CA,49.1168,-68.399,88.11,69,1,16.11,clear sky
18,Jamestown,US,42.097,-79.2353,83.52,85,40,3,light rain
19,Carballo,ES,43.213,-8.691,80.76,92,18,4.99,few clouds
20,Barrow,US,71.2906,-156.7887,37.42,87,90,11.5,overcast clouds
21,Tiksi,RU,71.6872,128.8694,43.54,76,100,5.99,overcast clouds
22,Ancud,CL,-41.8697,-73.8203,45.93,81,100,4.23,overcast clouds
23,Magole,TZ,-6.3667,37.3667,72.88,64,36,5.61,scattered clouds
24,Hilo,US,19.7297,-155.09,78.12,83,40,5.75,light rain
25,Bethel,US,41.3712,-73.414,96.1,58,20,1.01,few clouds
26,Bluff,NZ,-46.6,168.3333,41.81,69,100,29.73,overcast clouds
27,Mandera,KE,3.9366,41.867,87.33,41,100,18.84,overcast clouds
28,Mataura,NZ,-46.1927,168.8643,41.49,95,100,11.43,moderate rain
29,Hobart,AU,-42.8794,147.3294,47.05,74,45,3,scattered clouds
30,Kapoeta,SS,4.7717,33.5903,73.72,75,81,5.08,broken clouds
31,Severo-Kurilsk,RU,50.6789,156.125,52.86,92,13,7.27,few clouds
32,Saldanha,ZA,-33.0117,17.9442,51.85,64,0,10.36,clear sky
33,Lompoc,US,34.6391,-120.4579,92.01,58,1,3.44,clear sky
34,Yellowknife,CA,62.456,-114.3525,64.92,68,75,12.66,broken clouds
35,Olafsvik,IS,64.8945,-23.7142,55.24,84,100,9.53,overcast clouds
36,Panama City,PA,8.9936,-79.5197,79.43,92,40,8.05,scattered clouds
37,Port Alfred,ZA,-33.5906,26.891,56.82,63,100,10.22,overcast clouds
38,Tasiilaq,GL,65.6145,-37.6368,53.76,63,72,7.96,broken clouds
39,Eureka,US,40.8021,-124.1637,67.24,75,92,5.99,overcast clouds
40,Cape Town,ZA,-33.9258,18.4232,54.88,67,0,3,clear sky
41,Atuona,PF,-9.8,-139.0333,77.29,77,10,17.87,clear sky
42,Dunedin,NZ,-45.8742,170.5036,51.8,38,81,4,broken clouds
43,Aklavik,CA,68.2191,-135.0107,43.63,87,90,5.75,light rain
44,Biltine,TD,14.5333,20.9167,75.18,79,56,8.72,broken clouds
45,Geraldton,AU,-28.7667,114.6,45.01,93,0,8.05,clear sky
46,Fukue,JP,32.6881,128.8419,77.95,88,100,16.2,heavy intensity rain
47,Coquimbo,CL,-29.9533,-71.3436,55.13,71,20,11.5,few clouds
48,East London,ZA,-33.0153,27.9116,50.94,93,20,6.91,few clouds
49,Porto Walter,BR,-8.2686,-72.7439,98.24,26,5,2.1,clear sky
50,Chokurdakh,RU,70.6333,147.9167,43.77,75,100,19.46,overcast clouds
51,Aykhal,RU,66,111.5,43.93,93,64,7,broken clouds
52,Kruisfontein,ZA,-34.0033,24.7314,45.88,78,87,3.13,light rain
53,Lebu,CL,-37.6167,-73.65,52.27,70,1,6.82,clear sky
54,Dauphin,CA,51.1494,-100.0502,69.94,32,1,10.36,clear sky
55,Miguel Hidalgo,MX,19.4225,-99.2028,71.53,48,22,5.64,few clouds
56,Berdigestyakh,RU,62.0989,126.6992,61.63,75,35,4.38,scattered clouds
57,Bodden Town,KY,19.2833,-81.25,89.01,69,40,2.3,scattered clouds
58,Massakory,TD,12.996,15.7293,79.12,80,98,6.38,light rain
59,Tuktoyaktuk,CA,69.4541,-133.0374,42.8,75,90,11.5,light rain
60,Hermanus,ZA,-34.4187,19.2345,50.81,78,2,14.52,clear sky
61,Ostersund,SE,63.1792,14.6357,59.45,100,20,2.3,light rain
62,Paciran,ID,-6.8767,112.3761,76.55,88,8,7.09,clear sky
63,Bredasdorp,ZA,-34.5322,20.0403,50.29,81,0,5.75,clear sky
64,Tiarei,PF,-17.5333,-149.3333,80.62,68,89,19.69,overcast clouds
65,Saint George,US,37.1041,-113.5841,100.54,30,1,1.01,clear sky
66,Provideniya,RU,64.3833,-173.3,45.1,74,89,6.55,overcast clouds
67,Kavieng,PG,-2.5744,150.7967,81.1,78,92,10.87,overcast clouds
68,Waycross,US,31.2136,-82.354,93.97,55,75,4.61,broken clouds
69,Freeport,US,40.6576,-73.5832,99.5,55,1,10,clear sky
70,Ribeira Grande,PT,38.5167,-28.7,75.6,88,75,11.5,broken clouds
71,Isla Vista,US,34.4133,-119.861,99.34,68,1,8.05,clear sky
72,Ayan,RU,56.45,138.1667,62.76,74,82,3.15,broken clouds
73,Beloha,MG,-25.1667,45.05,65.64,84,100,15.59,light rain
74,Rosarito,MX,32.3333,-117.0333,95.41,57,0,9.53,clear sky
75,Vaini,TO,-21.2,-175.2,64.56,94,75,4.61,broken clouds
76,Avarua,CK,-21.2078,-159.775,68.05,94,75,3.44,broken clouds
77,Kodiak,US,57.79,-152.4072,56.71,54,1,12.66,clear sky
78,Mount Gambier,AU,-37.8333,140.7667,46.31,100,90,8.05,overcast clouds
79,Cabedelo,BR,-6.9811,-34.8339,83.07,74,10,17.22,clear sky
80,Bathsheba,BB,13.2167,-59.5167,88.41,74,40,16.11,scattered clouds
81,Sao Filipe,CV,14.8961,-24.4956,77.77,74,12,13.04,few clouds
82,Kiruna,SE,67.8557,20.2251,52.72,76,84,4.61,broken clouds
83,Elat,IL,29.5581,34.9482,98.44,18,0,11.5,clear sky
84,Sorland,NO,67.667,12.6934,55.47,84,60,7.14,broken clouds
85,Hirara,JP,24.8,125.2833,82,83,100,22.7,overcast clouds
86,Dapaong,TG,10.8639,0.205,73.99,86,97,5.79,overcast clouds
87,Ahipara,NZ,-35.1667,173.1667,53.62,74,100,9.62,overcast clouds
88,Emerald,AU,-23.5333,148.1667,57.34,88,1,6.91,clear sky
89,Bereda,ES,43.2686,-7.5406,74.41,88,1,5.1,clear sky
90,Meadow Lake,US,34.8014,-106.5436,87.82,47,100,11.43,overcast clouds
91,Lensk,RU,60.7253,114.9278,63.63,86,15,2.95,few clouds
92,New Norfolk,AU,-42.7826,147.0587,46.71,71,59,1.99,broken clouds
93,Gweta,BW,-20.1833,25.2333,66.13,50,0,22.66,clear sky
94,Neiafu,TO,-18.65,-173.9833,68.68,83,40,0,scattered clouds
95,Larap,PH,14.299,122.6504,78.4,89,4,3.47,clear sky
96,Salalah,OM,17.0151,54.0924,77.09,88,90,6.91,overcast clouds
97,Punta Arenas,CL,-53.15,-70.9167,51.91,62,40,29.93,light rain
98,Puerto Ayora,EC,-0.7393,-90.3518,76.96,71,76,11.52,broken clouds
99,Amilly,FR,47.9728,2.7719,80.06,67,86,3.71,overcast clouds
100,Thompson,CA,55.7435,-97.8558,62.76,48,75,17.27,broken clouds
101,Visnes,NO,59.3556,5.2242,60.85,82,75,8.05,broken clouds
102,Namuac,PH,18.6109,121.1657,77.7,82,31,5.03,light rain
103,Tautira,PF,-17.7333,-149.15,80.62,68,100,21.72,overcast clouds
104,Acapulco,MX,16.8634,-99.8901,87.62,66,75,6.91,broken clouds
105,Belyy Yar,RU,53.6039,91.3903,64.29,94,75,6.71,light intensity shower rain
106,Celestun,MX,20.8667,-90.4,87.71,62,58,14.32,broken clouds
107,Cabo San Lucas,MX,22.8909,-109.9124,92.52,70,17,4,few clouds
108,Vestmanna,FO,62.1564,-7.1664,56.32,77,90,6.91,overcast clouds
109,Torbay,CA,47.6666,-52.7314,71.28,86,75,17.27,broken clouds
110,Asau,RO,46.4333,26.4,63.52,78,28,2.17,scattered clouds
111,Alice Springs,AU,-23.7,133.8833,40.55,42,0,1.14,clear sky
112,Severodvinsk,RU,64.5635,39.8302,60.91,98,100,11.34,overcast clouds
113,Qaanaaq,GL,77.484,-69.3632,44.1,55,0,6.76,clear sky
114,Kachiry,KZ,53.0675,76.1036,58.21,57,100,8.66,overcast clouds
115,Bayeux,BR,-7.125,-34.9322,83.03,61,20,17.27,few clouds
116,Marawi,PH,7.9986,124.2928,66.65,92,100,2.73,moderate rain
117,Faanui,PF,-16.4833,-151.75,78.82,68,83,11.03,broken clouds
118,Batemans Bay,AU,-35.7167,150.1833,42.91,76,0,4.56,clear sky
119,Hithadhoo,MV,-0.6,73.0833,82.24,74,90,13.04,overcast clouds
120,Minot,US,48.2325,-101.2963,79.79,28,75,10,broken clouds
121,Banga,PH,6.4239,124.7783,73.83,96,100,1.16,overcast clouds
122,Pevek,RU,69.7008,170.3133,38.16,99,100,10.33,overcast clouds
123,Butaritari,KI,3.0707,172.7902,81.97,76,95,10.45,light rain
124,Saint-Philippe,RE,-21.3585,55.7679,71.15,78,2,5.66,clear sky
125,Kapaa,US,22.0752,-159.319,80.92,76,40,3,light rain
126,Guerrero Negro,MX,27.9769,-114.0611,84.79,60,6,11.32,clear sky
127,Dongsheng,CN,39.8161,109.9776,64.85,69,0,10.11,clear sky
128,Dingle,PH,10.9995,122.6711,76.6,83,65,1.43,broken clouds
129,Carnarvon,AU,-24.8667,113.6333,51.87,66,0,9.22,clear sky
130,Bambous Virieux,MU,-20.3428,57.7575,68.22,88,20,6.91,few clouds
131,Da Nang,VN,16.0678,108.2208,86.05,89,40,2.3,scattered clouds
132,Oranjemund,NA,-28.55,16.4333,55.99,64,0,16.69,clear sky
133,Barguzin,RU,53.6167,109.6167,60.94,66,36,4.09,scattered clouds
134,Dikson,RU,73.5069,80.5464,43.95,100,100,1.63,overcast clouds
135,Portland,US,45.5234,-122.6762,94.21,53,75,3.44,smoke
136,Reconquista,AR,-29.15,-59.65,66.99,31,2,6.8,clear sky
137,Rawson,AR,-43.3002,-65.1023,65.84,20,0,9.71,clear sky
138,Alyangula,AU,-13.8483,136.4192,73.27,83,26,4.61,scattered clouds
139,Tawang,IN,27.5833,91.8667,56.43,93,100,0.58,overcast clouds
140,San Rafael Del Sur,NI,11.8485,-86.4384,90.57,47,100,2.26,overcast clouds
141,Taoudenni,ML,22.6783,-3.9836,106.68,11,7,12.39,clear sky
142,Sovetskiy,RU,61.3614,63.5842,59.99,70,96,5.7,overcast clouds
143,Vila Franca Do Campo,PT,37.7167,-25.4333,75.61,73,15,9.22,few clouds
144,Mocuba,MZ,-16.8392,36.9856,69.48,83,0,6.87,clear sky
145,Portree,GB,57.4129,-6.1942,56.86,88,100,19.01,overcast clouds
146,Atar,MR,20.5169,-13.0499,108.19,8,46,18.63,scattered clouds
147,Tairua,NZ,-37.0167,175.85,52.09,84,3,9.22,clear sky
148,Cockburn Town,TC,21.4612,-71.1419,83.12,76,100,18.61,overcast clouds
149,Castro,BR,-24.7911,-50.0119,50.58,98,100,4.92,overcast clouds
150,Hervey Bay,AU,-25.2986,152.8535,60.04,78,0,5.37,clear sky
151,Saint-Augustin,CA,51.226,-58.6502,67.06,94,100,7.11,overcast clouds
152,Kaitangata,NZ,-46.2817,169.8464,42.66,93,100,16.22,light rain
153,Arlit,NE,18.7369,7.3853,97.29,27,5,10.8,clear sky
154,Tura,IN,25.5198,90.2201,74.66,99,100,5.26,overcast clouds
155,Virginia Beach,US,36.8529,-75.978,98.02,57,40,13.8,scattered clouds
156,Lamar,US,33.6668,-95.5836,95.52,51,20,5.75,few clouds
157,Natal,BR,-5.795,-35.2094,81.25,69,75,17.27,broken clouds
158,Adrar,MR,20.5022,-10.0711,102.04,11,13,9.8,few clouds
159,Nogales,MX,31.3086,-110.9422,83.71,61,1,3.44,clear sky
160,Nouadhibou,MR,20.931,-17.0347,75.18,73,0,20.71,sand
161,Kargasok,RU,59.0556,80.8572,50.9,71,99,7.34,overcast clouds
162,Avera,US,33.194,-82.5271,95.68,34,43,1.07,scattered clouds
163,Plettenberg Bay,ZA,-34.0527,23.3716,51.48,80,8,8.05,clear sky
164,Longyearbyen,SJ,78.2186,15.6401,44.44,65,75,11.5,broken clouds
165,Rocky Mountain House,CA,52.3668,-114.9188,82.15,36,0,2.3,clear sky
166,Saskylakh,RU,71.9167,114.0833,48.34,73,100,7.25,overcast clouds
167,Kahului,US,20.8947,-156.47,78.82,85,40,9.22,scattered clouds
168,Bengkulu,ID,-3.8004,102.2655,75.24,90,25,4.34,scattered clouds
169,Hami,CN,42.8,93.45,85.46,22,65,8.03,broken clouds
170,Lorengau,PG,-2.0226,147.2712,81.46,76,25,9.4,scattered clouds
171,Kuching,MY,1.55,110.3333,75.42,100,40,0,scattered clouds
172,Khatanga,RU,71.9667,102.5,50.54,80,100,8.68,overcast clouds
173,Logrono,ES,42.4667,-2.45,92.7,27,0,4.61,clear sky
174,Upernavik,GL,72.7868,-56.1549,43.45,93,100,9.64,moderate rain
175,Poronaysk,RU,49.2167,143.1167,53.04,92,100,3.15,overcast clouds
176,Chapais,CA,49.7834,-74.8492,74.98,38,43,11.99,scattered clouds
177,Namibe,AO,-15.1961,12.1522,62.55,87,32,5.44,scattered clouds
178,Panuco,MX,22.05,-98.1667,87.04,42,17,7.47,few clouds
179,Vestmannaeyjar,IS,63.4427,-20.2734,56.39,88,90,9.22,overcast clouds
180,Kitoy,RU,52.6,103.9,58.08,95,100,3.22,overcast clouds
181,Chebsara,RU,59.2002,38.8356,58.33,80,12,13.62,few clouds
182,Sterling,US,39.0062,-77.4286,99.59,49,75,1.99,broken clouds
183,Haljala,EE,59.4336,26.2614,60.8,79,100,6.82,overcast clouds
184,Arraial Do Cabo,BR,-22.9661,-42.0278,67.86,83,75,13.8,light intensity drizzle
185,Jumla,NP,29.2747,82.1838,62.91,94,100,0.63,overcast clouds
186,Muroto,JP,33.2833,134.15,79.83,91,100,25.5,light rain
187,Usinsk,RU,65.9939,57.5281,61.29,76,100,12.21,overcast clouds
188,Makakilo City,US,21.3469,-158.0858,80.92,70,1,3.44,clear sky
189,Darnah,LY,32.767,22.6367,79.83,72,0,7.78,clear sky
190,Kailua,US,21.4022,-157.7394,82.38,73,75,13.8,broken clouds
191,Batagay,RU,67.6333,134.6333,58.59,57,100,5.28,overcast clouds
192,Leningradskiy,RU,69.3833,178.4167,41.18,94,100,1.92,overcast clouds
193,Netarhat,IN,23.4833,84.2667,69.55,87,100,3.09,overcast clouds
194,Kazanskaya,RU,45.4106,40.4361,70.3,89,100,5.35,overcast clouds
195,Cherskiy,RU,68.75,161.3,51.44,96,100,9.62,light rain
196,Choma,ZM,-16.8065,26.9531,62.92,31,0,4.36,clear sky
197,Prattville,US,32.464,-86.4597,91.78,59,1,0,clear sky
198,Shibata,JP,37.95,139.3333,71.08,92,100,2.48,overcast clouds
199,Esperance,AU,-33.8667,121.9,40.84,50,42,11.12,scattered clouds
200,Georgetown,MY,5.4112,100.3354,78.89,92,20,3.44,few clouds
201,Umm Lajj,SA,25.0213,37.2685,91.09,46,0,8.57,clear sky
202,Tuatapere,NZ,-46.1333,167.6833,41.83,80,87,16.73,overcast clouds
203,Ambon,ID,-3.6954,128.1814,77.14,94,40,3.44,scattered clouds
204,Jalu,LY,29.0331,21.5482,93.96,23,0,14.09,clear sky
205,Poum,NC,-20.2333,164.0167,69.06,62,10,12.46,clear sky
206,Oussouye,SN,12.485,-16.5469,87.98,81,100,5.57,overcast clouds
207,Olkhovka,RU,53.2115,60.6069,58.87,50,8,2.15,clear sky
208,San Antonio,US,29.4241,-98.4936,95.43,55,20,1.01,few clouds
209,Fairbanks,US,64.8378,-147.7164,56.01,85,75,3,light rain
210,Maxixe,MZ,-23.8597,35.3472,69.62,68,75,18.41,broken clouds
211,Victoria,HK,22.2855,114.1577,85.32,87,100,1.01,overcast clouds
212,Wenatchee,US,47.4235,-120.3103,93.42,36,90,6.91,haze
213,Takoradi,GH,4.8845,-1.7554,76.78,76,100,10.04,overcast clouds
214,Lavrentiya,RU,65.5833,-171,44.26,77,100,7.94,overcast clouds
215,Husavik,IS,66.0449,-17.3389,55.31,80,100,7.83,overcast clouds
216,Kenai,US,60.5544,-151.2583,58.14,81,40,4.61,scattered clouds
217,Mayo,US,38.8876,-76.5119,100.2,64,25,1.99,scattered clouds
218,Paka,MY,4.6374,103.4368,78.73,94,100,0,overcast clouds
219,Mahebourg,MU,-20.4081,57.7,68.25,88,20,6.91,few clouds
220,Zhigansk,RU,66.7697,123.3711,49.64,91,100,15.12,overcast clouds
221,Sinnamary,GF,5.3833,-52.95,81.86,81,58,10.67,broken clouds
222,Bahia Blanca,AR,-38.7196,-62.2724,61.86,32,0,13.51,clear sky
223,Port Jervis,US,41.3751,-74.6927,95.32,63,41,5.26,scattered clouds
224,Alexandria,EG,31.2156,29.9553,81.14,78,40,9.22,scattered clouds
225,Haines Junction,CA,60.7522,-137.5108,55.35,94,100,2.3,moderate rain
226,Amahai,ID,-3.3333,128.9167,76.6,88,20,2.95,few clouds
227,Hasaki,JP,35.7333,140.8333,77.4,93,100,28.74,heavy intensity rain
228,Port Elizabeth,ZA,-33.918,25.5701,50.29,66,20,3.44,few clouds
229,Krasnoselkup,RU,65.7,82.4667,56.08,90,100,7.65,overcast clouds
230,Luderitz,NA,-26.6481,15.1594,64.04,34,0,19.33,clear sky
231,Nautla,MX,20.2167,-96.7833,87.85,61,11,13.6,few clouds
232,La Palma,US,33.8464,-118.0467,100.76,60,20,1.99,few clouds
233,Banda Aceh,ID,5.5577,95.3222,77.5,87,100,13.73,overcast clouds
234,Broken Hill,AU,-31.95,141.4333,47.91,71,75,8.05,broken clouds
235,Sao Jose Da Coroa Grande,BR,-8.8978,-35.1478,76.66,71,8,11.43,clear sky
236,Paamiut,GL,61.994,-49.6678,45.16,90,100,22.01,overcast clouds
237,Nishihara,JP,26.1842,127.7558,80.65,97,75,14.97,broken clouds
238,Nagaur,IN,27.2,73.7333,86.9,49,92,18.3,overcast clouds
239,Turukhansk,RU,65.8167,87.9833,49.6,65,89,6.02,overcast clouds
240,Katsuura,JP,35.1333,140.3,78.91,91,100,29.51,moderate rain
241,Isangel,VU,-19.55,169.2667,64.51,82,40,6.91,scattered clouds
242,Russell,US,32.3502,-85.1999,93.79,48,20,3.44,few clouds
243,Skrunda,LV,56.6833,22.0167,65.86,71,100,5.3,overcast clouds
244,Oudtshoorn,ZA,-33.5907,22.2014,46.76,87,5,1.79,clear sky
245,Winnemucca,US,40.973,-117.7357,91.45,15,1,4.61,clear sky
246,Sola,VU,-13.8833,167.55,77.67,94,75,5.75,broken clouds
247,Santa Maria,BR,-29.6842,-53.8069,65.5,63,75,13.8,broken clouds
248,Tindwari,IN,25.6167,80.5333,86,70,100,9.22,overcast clouds
249,Wuchi,CN,29.3786,103.023,59.95,82,100,1.7,overcast clouds
250,Dao,PH,11.3937,122.6856,76.55,84,87,1.28,overcast clouds
251,Kedrovyy,RU,56.1667,91.8167,59.41,99,94,4.05,overcast clouds
252,Fortuna,US,40.5982,-124.1573,65.98,71,89,6.06,overcast clouds
253,San Patricio,US,28.017,-97.5169,96.03,45,68,12.86,broken clouds
254,West Wendover,US,40.7391,-114.0733,88.81,19,1,4.61,clear sky
255,Ixtapa,MX,20.7,-105.2,87.22,66,20,8.05,few clouds
256,Tateyama,JP,34.9833,139.8667,78.82,90,100,29.91,light rain
257,Prado,BR,-17.3411,-39.2208,74.48,64,5,7.23,clear sky
258,Keshod,IN,21.3,70.25,80.15,77,100,11.21,overcast clouds
259,Luau,AO,-10.7073,22.2247,73.85,14,1,3.38,clear sky
260,Nuuk,GL,64.1835,-51.7216,65.01,39,90,34.52,sand
261,Surt,LY,31.2089,16.5887,82.29,77,0,12.12,clear sky
262,Bom Jardim,BR,-7.7958,-35.5872,82.74,56,94,14.85,overcast clouds
263,Linhares,BR,-19.3911,-40.0722,77.77,54,93,7.4,overcast clouds
264,Manicore,BR,-5.8092,-61.3003,85.95,74,0,6.91,clear sky
265,Porto Tolle,IT,44.9497,12.3245,87.82,53,79,6.67,broken clouds
266,Severnyy,RU,50.677,36.5532,68.04,56,0,6.71,clear sky
267,Lerwick,GB,60.1545,-1.1494,59,81,62,7.43,broken clouds
268,Humaita,BR,-7.5061,-63.0208,101.88,19,56,3.15,broken clouds
269,Doha,QA,25.2867,51.5333,97.11,49,0,4.61,clear sky
270,Ha Tinh,VN,18.3333,105.9,80.31,76,100,6.78,overcast clouds
271,Vila Velha,BR,-20.3297,-40.2925,78.75,61,0,11.5,clear sky
272,Bosaso,SO,11.2842,49.1816,89.6,54,3,1.45,clear sky
273,Bakel,SN,14.905,-12.4568,91.02,54,100,9.64,overcast clouds
274,La Asuncion,VE,11.0333,-63.8628,74.93,100,100,9.22,overcast clouds
275,Byron Bay,AU,-28.65,153.6167,58.95,93,19,7.78,few clouds
276,Ponta Do Sol,PT,32.6667,-17.1,76.71,75,8,3.51,clear sky
277,Slave Lake,CA,55.2834,-114.769,75.18,46,1,4.61,clear sky
278,Ust-Nera,RU,64.5667,143.2,58.33,67,92,5.91,overcast clouds
279,Tokur,RU,53.1333,132.9,54.25,91,100,2.04,overcast clouds
280,Verkhoyansk,RU,67.5447,133.385,59.4,57,100,5.35,overcast clouds
281,Yeppoon,AU,-23.1333,150.7333,58.78,90,6,9.71,clear sky
282,Tlalchapa,MX,18.4,-100.4667,84.79,66,30,1.77,scattered clouds
283,Vrangel,RU,42.7297,133.0839,60.13,66,6,6.62,clear sky
284,Grand Gaube,MU,-20.0064,57.6608,68.38,84,13,3,few clouds
285,Voyvozh,RU,62.892,54.9635,70.09,62,56,12.01,broken clouds
286,Karratha,AU,-20.7377,116.8463,64.81,34,0,11.56,clear sky
287,Hambantota,LK,6.1241,81.1185,80.94,83,40,3.44,scattered clouds
288,Shimoda,JP,34.6667,138.95,78.91,91,100,23.22,overcast clouds
289,Cayenne,GF,4.9333,-52.3333,78.1,87,90,1.01,overcast clouds
290,Strezhevoy,RU,60.7333,77.5889,58.98,72,100,5.19,overcast clouds
291,Eldorado,BR,-23.7869,-54.2836,66.94,64,100,2.51,overcast clouds
292,Vardo,NO,70.3705,31.1107,53.8,100,90,2.3,fog
293,Baturaja,ID,-4.1333,104.1667,72.99,98,100,2.55,overcast clouds
294,Broome,US,42.2506,-75.833,92.7,61,75,4,broken clouds
295,Jalalabad,AF,34.4265,70.4515,93.63,39,0,3.85,clear sky
296,Faya,SA,18.3851,42.4509,71.71,49,90,2.26,overcast clouds
297,Auki,SB,-8.7676,160.7034,75.83,89,95,4.9,overcast clouds
298,Neuenkirchen,DE,52.2447,7.3718,67.78,70,99,7.02,overcast clouds
299,Qui Nhon,VN,13.7667,109.2333,80.31,74,100,4.09,overcast clouds
300,Santiago Del Estero,AR,-27.7951,-64.2615,62.8,19,0,3.27,clear sky
301,Mounana,GA,-1.4085,13.1586,77.14,64,58,2.57,broken clouds
302,Padang,ID,-0.9492,100.3543,77.49,86,100,2.86,overcast clouds
303,Hamilton,US,39.1834,-84.5333,91.06,71,40,1.01,scattered clouds
304,Buraydah,SA,26.326,43.975,102.65,12,1,12.1,clear sky
305,Cacador,BR,-26.7753,-51.015,50.99,95,100,3.18,overcast clouds
306,Codrington,AU,-38.2667,141.9667,48.58,90,77,9.13,broken clouds
307,Labytnangi,RU,66.6572,66.4183,59.68,93,100,0.85,overcast clouds
308,Imaichi,JP,36.7167,139.6833,67.23,95,100,2.48,overcast clouds
309,Axim,GH,4.8699,-2.2405,76.42,78,100,8.37,overcast clouds
310,Klaksvik,FO,62.2266,-6.589,58.12,88,100,8.86,overcast clouds
311,Te Anau,NZ,-45.4167,167.7167,41.77,83,100,6.13,overcast clouds
312,Qandala,SO,11.472,49.8728,89.47,50,5,5.97,clear sky
313,Marzuq,YE,14.4,46.4667,85.77,38,11,6.11,few clouds
314,Pangkalanbuun,ID,-2.6833,111.6167,74.16,98,92,2.75,overcast clouds
315,Luanda,AO,-8.8368,13.2343,71.13,85,0,13.42,clear sky
316,Abu Dhabi,AE,24.4667,54.3667,93.31,84,0,5.75,clear sky
317,Khani,GE,41.9563,42.9566,63.97,99,100,1.32,light rain
318,Omboue,GA,-1.5746,9.2618,75.97,84,72,8.39,broken clouds
319,Richards Bay,ZA,-28.783,32.0377,61.88,56,100,8.63,overcast clouds
320,Durban,ZA,-29.8579,31.0292,58.12,78,100,3,overcast clouds
321,Sfantu Gheorghe,RO,45.8667,25.7833,65.26,51,7,1.07,clear sky
322,Vila,PT,42.0304,-8.1588,72.48,48,0,3.04,clear sky
323,Tahta,EG,26.7693,31.5021,98.92,20,0,13.94,clear sky
324,Tiznit,MA,29.5833,-9.5,95.81,19,41,5.68,scattered clouds
325,Imbituba,BR,-28.24,-48.6703,62.49,95,100,3.18,light rain
326,Nicolas Bravo,MX,18.45,-88.9167,97.29,36,26,3.67,scattered clouds
327,Batticaloa,LK,7.7102,81.6924,81.84,75,100,0.69,overcast clouds
328,Nunoa,PE,-14.48,-70.6411,61.54,17,1,9.95,clear sky
329,Kaniama,CD,-7.5667,24.1833,79.54,24,3,1.92,clear sky
330,Cortes,ES,41.9395,-1.4396,98.65,26,15,8.28,few clouds
331,Talnakh,RU,69.4865,88.3972,53.89,78,100,6.04,overcast clouds
332,San Juan,AR,-31.5375,-68.5364,64.08,25,0,3.04,clear sky
333,Kamyshevatskaya,RU,46.4132,37.9563,70,90,100,27.58,heavy intensity rain
334,Magaria,NE,12.9983,8.9099,82.38,61,77,4.5,broken clouds
335,Champerico,GT,14.3,-91.9167,90.14,74,100,5.17,overcast clouds
336,Maniitsoq,GL,65.4167,-52.9,48.92,87,100,24.09,moderate rain
337,Puerto Colombia,CO,10.9878,-74.9547,80.69,71,87,5.93,overcast clouds
338,Olinda,BR,-8.0089,-34.8553,76.73,65,40,18.41,scattered clouds
339,Kazanskoye,RU,55.6448,69.235,55.53,74,25,4.83,scattered clouds
340,Eyl,SO,7.9803,49.8164,76.6,83,56,21.32,broken clouds
341,Alta Floresta,BR,-9.8756,-56.0861,100.22,18,0,8.05,clear sky
342,Dehloran,IR,32.6941,47.2679,100.13,10,0,8.68,clear sky
343,Pisco,PE,-13.7,-76.2167,68.02,77,20,12.66,few clouds
344,Gravatai,BR,-29.9444,-50.9919,67.8,63,75,20.71,broken clouds
345,Potrerillos,HN,15.2333,-87.9667,94.66,41,100,3.83,overcast clouds
346,Empangeni,ZA,-28.762,31.8933,58.33,65,100,4.56,overcast clouds
347,Harper,LR,4.375,-7.7169,76.35,75,93,8.61,overcast clouds
348,Cap Malheureux,MU,-19.9842,57.6142,68.47,84,9,3,clear sky
349,Sendafa,ET,9.15,39.0333,54.64,84,4,3.96,light rain
350,Belgrade,RS,44.804,20.4651,83.39,44,0,1.14,clear sky
351,Gigmoto,PH,13.7796,124.39,81.18,83,32,4.97,scattered clouds
352,Margate,GB,51.3813,1.3862,69.91,73,82,1.99,broken clouds
353,Ushtobe,KZ,45.2514,77.9838,64.02,56,98,2.86,overcast clouds
354,Todos Santos,MX,23.45,-110.2167,92.01,75,21,9.37,few clouds
355,Bandarbeyla,SO,9.4942,50.8122,76.06,87,11,29.68,few clouds
356,Oksfjord,NO,70.2396,22.3479,53.67,97,100,4.59,overcast clouds
357,Akureyri,IS,65.6835,-18.0878,55.33,82,40,16.11,scattered clouds
358,Anshan,CN,41.1236,122.99,60.85,95,0,4.07,light rain
359,Miri,MY,4.4148,114.0089,77.14,94,40,4.61,scattered clouds
360,Kudahuvadhoo,MV,2.6708,72.8944,82.63,71,100,16.35,overcast clouds
361,Huarmey,PE,-10.0681,-78.1522,68.97,67,18,12.68,few clouds
362,Salinas,US,36.6777,-121.6555,87.21,70,1,8.05,clear sky
363,Palmer,US,42.1584,-72.3287,95.22,55,40,1.01,scattered clouds
364,Hobyo,SO,5.3505,48.5268,76.64,87,100,26.4,overcast clouds
365,Zalantun,CN,48,122.7167,55.98,94,38,6.64,scattered clouds
366,Port Blair,IN,11.6667,92.75,82.36,80,100,14.18,overcast clouds
367,Rosetta,EG,31.4044,30.4164,80.42,73,0,6.42,clear sky
368,Mayskiy,RU,47.6931,40.1025,67.41,89,100,16.93,moderate rain
369,Port Hedland,AU,-20.3167,118.5667,60.85,44,0,10.36,clear sky
370,Qaqortoq,GL,60.7167,-46.0333,64.9,81,53,4.88,broken clouds
371,Vyyezdnoye,RU,55.3815,43.7864,64.78,65,100,6.85,light rain
372,Constitucion,CL,-35.3333,-72.4167,56.5,66,7,8.77,clear sky
373,San Carlos Del Zulia,VE,9,-71.9135,93.74,49,94,5.37,overcast clouds
374,Lat Yao,TH,15.751,99.7893,77.02,87,100,2.51,light rain
375,Lethem,GY,3.3803,-59.7968,79.48,80,88,6.58,light rain
376,Naliya,IN,23.2667,68.8333,81.18,74,100,16.33,overcast clouds
377,Sitka,US,57.0531,-135.33,62.49,82,90,21.85,heavy intensity rain
378,Sydney Mines,CA,46.2367,-60.2177,87.55,72,40,8.99,scattered clouds
379,Mandalgovi,MN,45.7625,106.2708,61.05,64,68,3.38,broken clouds
380,Orocue,CO,4.7912,-71.3354,85.39,67,47,7.74,light rain
381,Anaco,VE,9.4389,-64.4728,82.26,77,100,4.16,overcast clouds
382,Cuamba,MZ,-14.8031,36.5372,74.14,33,56,3.94,broken clouds
383,Asfi,MA,32.2994,-9.2372,75.94,77,68,15.59,broken clouds
384,Gimli,CA,50.6336,-96.9907,69.44,45,5,9.22,clear sky
385,Awbari,LY,26.5921,12.7805,95.59,15,0,13.96,clear sky
386,Rosiile,RO,44.8667,23.9333,77.34,49,4,3.67,clear sky
387,Lasa,IT,46.6166,10.7002,77.88,75,100,0.85,overcast clouds
388,Sioux Lookout,CA,50.1001,-91.917,61.18,62,75,10.36,broken clouds
389,Narsaq,GL,60.9167,-46.05,64.62,71,66,5.55,broken clouds
390,Muborak,UZ,39.2553,65.1528,76.91,24,0,11.36,clear sky
391,Alofi,NU,-19.0595,-169.9187,66.09,88,45,6.91,scattered clouds
392,Ginir,ET,7.1333,40.7,63.79,64,63,4.92,broken clouds
393,Kyabe,TD,9.4515,18.9449,73.18,93,85,3,overcast clouds
394,Sabang,ID,5.8933,95.3214,80.33,80,100,22.66,light rain
395,Ada,US,43.4166,-116.1262,92.73,25,1,5.75,haze
396,Vallenar,CL,-28.5708,-70.7581,73.99,19,0,6.15,clear sky
397,Iracoubo,GF,5.4802,-53.2011,83.25,73,22,11.68,few clouds
398,Berezovyy,RU,51.6667,135.7,55.51,93,75,2.62,broken clouds
399,Porto Novo,BJ,6.4965,2.6036,78.62,79,100,7.76,overcast clouds
400,Valle De Allende,MX,26.9333,-105.4,79.81,41,99,4.94,overcast clouds
401,Bonthe,SL,7.5264,-12.505,75.79,90,100,12.64,light rain
402,La Ronge,CA,55.1001,-105.2842,71.85,46,40,5.75,scattered clouds
403,Rundu,NA,-17.9333,19.7667,67.17,16,0,5.19,clear sky
404,Buenos Aires,AR,-34.6132,-58.3772,57.78,82,75,4.61,broken clouds
405,Coihaique,CL,-45.5752,-72.0662,53.55,43,0,5.75,clear sky
406,Cusuna,HN,15.85,-85.2333,87.8,58,30,8.63,scattered clouds
407,Campobello Di Mazara,IT,37.6358,12.7443,85.86,60,0,1.01,clear sky
408,Canon City,US,38.441,-105.2424,85.03,36,1,1.99,clear sky
409,San Bartolome De Tirajana,ES,27.9248,-15.5733,68.32,68,20,26.46,few clouds
410,Bauchi,NG,10.5,10,72.28,90,100,2.84,overcast clouds
411,Henties Bay,NA,-22.116,14.2845,57.85,84,4,8.61,clear sky
412,Dubai,AE,25.2582,55.3047,96.73,56,0,2.3,clear sky
413,Road Town,VG,18.4167,-64.6167,89.69,74,40,10.36,scattered clouds
414,Katsikas,GR,39.6225,20.8875,78.57,50,62,2.3,broken clouds
415,Anadyr,RU,64.75,177.4833,52.3,82,0,4.47,clear sky
416,Abu Kamal,SY,34.4506,40.9171,94.37,18,0,9.62,clear sky
417,El Rosario,MX,24.2556,-107.1828,90.14,53,42,7.63,scattered clouds
418,Urusha,RU,54.05,122.9,51.04,89,14,1.74,few clouds
419,Lata,PT,40.1629,-8.3327,76.35,53,0,4.05,clear sky
420,Cidreira,BR,-30.1811,-50.2056,59.36,84,100,15.05,overcast clouds
421,Vonyarcvashegy,HU,46.7574,17.3117,82.81,65,65,0,broken clouds
422,Sobolevo,RU,54.4299,31.8996,60.4,71,31,5.99,scattered clouds
423,Kindersley,CA,51.4668,-109.1682,82.42,24,20,10.36,few clouds
424,Sechura,PE,-5.5569,-80.8222,75.69,61,44,14.72,scattered clouds
425,Tual,ID,-5.6667,132.75,80.24,82,87,21.12,overcast clouds
426,Touros,BR,-5.1989,-35.4608,81.5,66,60,18.86,broken clouds
427,Zhezkazgan,KZ,47.8043,67.7144,60.39,55,22,6.62,few clouds
428,Abu Samrah,SY,35.3029,37.1841,82.74,43,0,12.44,clear sky
429,Nhulunbuy,AU,-12.2333,136.7667,77.61,78,75,9.22,broken clouds
430,Westport,US,41.1415,-73.3579,98.1,59,1,9.22,clear sky
431,Chuy,UY,-33.6971,-53.4616,55.29,70,6,8.19,clear sky
432,Kaeo,NZ,-35.1,173.7833,48.33,96,93,4.72,overcast clouds
433,Kalmunai,LK,7.4167,81.8167,81.68,76,100,1.52,overcast clouds
434,Oranjestad,AW,12.524,-70.027,91.35,52,20,17.27,few clouds
435,Opuwo,NA,-18.0607,13.84,68.32,28,21,4.97,few clouds
436,Sorong,ID,-0.8833,131.25,77.68,84,65,3.67,broken clouds
437,Warragul,AU,-38.1667,145.9333,48.24,97,5,2.66,clear sky
438,Rio Grande,BR,-32.035,-52.0986,62.71,74,100,11.12,overcast clouds
439,Half Moon Bay,US,37.4636,-122.4286,87.82,63,20,9.22,few clouds
440,Conceicao Do Araguaia,BR,-8.2578,-49.2647,93.33,40,0,9.22,clear sky
441,Mount Isa,AU,-20.7333,139.5,67.77,37,75,10.36,broken clouds
442,Jizan,SA,17.3333,42.6667,92.34,49,57,4.63,broken clouds
443,Sobreira,PT,41.5237,-7.8023,80.76,36,0,4.97,clear sky
444,Chifeng,CN,42.2683,118.9636,58.95,81,2,2.8,clear sky
445,Jinchang,CN,38.4953,102.1739,73.56,35,4,4.36,clear sky
446,Mmabatho,ZA,-25.85,25.6333,67.96,40,0,17.27,light rain
447,Kita,ML,13.0349,-9.4895,78.67,84,100,1.77,light rain
448,Sur,OM,22.5667,59.5289,87.15,59,96,14.65,overcast clouds
449,Nioro,GM,13.35,-15.75,79.68,79,100,8.28,overcast clouds
450,Aksu,CN,41.1231,80.2644,77.95,33,100,3.24,light rain
451,Havoysund,NO,70.9963,24.6622,52.68,84,80,11.27,broken clouds
452,Camocim,BR,-2.9022,-40.8411,83.44,66,55,20.15,broken clouds
453,Diffa,NE,13.3154,12.6113,83.5,59,22,3.53,few clouds
454,Summerville,US,33.0185,-80.1757,92.79,60,1,1.99,clear sky
455,Buala,SB,-8.145,159.5921,77.9,83,100,4.94,light rain
456,Gat,IL,31.61,34.7642,84.88,57,0,5.1,clear sky
457,Namatanai,PG,-3.6667,152.4333,78.06,81,100,5.77,overcast clouds
458,Kodinsk,RU,58.6881,99.1844,57.63,92,5,1.59,clear sky
459,Cruzeiro Do Sul,BR,-29.5128,-51.9853,69.49,67,87,7.02,overcast clouds
460,Trincomalee,LK,8.5711,81.2335,80.65,76,51,17.72,broken clouds
461,Ankang,CN,32.68,109.0172,72.66,92,100,1.52,overcast clouds
462,Benguela,AO,-12.5763,13.4055,70.45,88,50,4.36,scattered clouds
463,Mersing,MY,2.4312,103.8405,75.11,94,100,5.75,overcast clouds
464,Oistins,BB,13.0667,-59.5333,87.89,74,40,16.11,scattered clouds
465,Dunda,TZ,-8.1167,34.25,67.08,48,0,5.82,clear sky
466,Verkhnyaya Inta,RU,65.9811,60.3094,61.2,88,100,11.72,overcast clouds
467,Corralillo,CU,22.9819,-80.5856,86.47,69,86,17.54,light rain
468,Amapa,BR,1,-52,80.62,81,100,3.31,overcast clouds
469,Iqaluit,CA,63.7506,-68.5145,42.53,93,75,10.36,light rain
470,Mantua,IT,45.1667,10.7833,91.72,67,56,1.01,broken clouds
471,Praia Da Vitoria,PT,38.7333,-27.0667,77.25,83,40,14.14,scattered clouds
472,Ostfildern,DE,48.7267,9.2514,78.75,61,20,9.22,few clouds
473,Kingisepp,RU,59.3733,28.6134,60.58,80,97,4.61,overcast clouds
474,Mehamn,NO,71.0357,27.8492,51.98,95,85,13.69,overcast clouds
475,Kandrian,PG,-6.2167,149.55,75.24,92,58,6.26,broken clouds
476,Cheney,US,47.4874,-117.5758,88.77,28,75,5.75,smoke
477,Berlevag,NO,70.8578,29.0864,52.09,92,100,8.32,overcast clouds
478,Seoul,KR,37.5683,126.9778,76.6,74,0,6.91,light rain
479,Kotovsk,UA,47.7531,29.532,64.36,60,5,5.1,clear sky
480,Erenhot,CN,43.6475,111.9767,71.37,44,88,8.12,overcast clouds
481,Maceio,BR,-9.6658,-35.7353,80.04,65,40,9.22,scattered clouds
482,Thana,PK,34.6369,72.0739,80.19,65,70,7.45,broken clouds
483,Tatawin,TN,32.9297,10.4518,99.48,36,5,10.07,clear sky
484,Singapore,SG,1.2897,103.8501,80.55,91,75,1.14,broken clouds
485,Deputatskiy,RU,69.3,139.9,42.78,93,100,3.69,moderate rain
486,Aquiraz,BR,-3.9014,-38.3911,84.29,67,22,12.1,few clouds
487,Sao Joao Da Barra,BR,-21.6403,-41.0511,75.29,80,19,14.74,few clouds
488,Koslan,RU,63.4564,48.8989,61.75,97,100,7.92,overcast clouds
489,Pinheiro Machado,BR,-31.5783,-53.3811,55.06,82,100,10.51,overcast clouds
490,Matagami,CA,49.7502,-77.6328,68.11,52,90,12.66,overcast clouds
491,Matay,EG,28.419,30.7792,93.15,24,0,8.08,clear sky
492,Xiaoweizhai,CN,26.1903,107.5125,72.05,99,100,1.63,moderate rain
493,Bisert,RU,56.8617,59.0523,56.19,67,6,4.65,clear sky
494,The Valley,AI,18.217,-63.0578,87.66,74,40,13.8,scattered clouds
495,Moses Lake,US,47.1301,-119.2781,94.28,22,90,0,haze
496,Quatre Cocos,MU,-20.2078,57.7625,68.09,82,11,5.41,few clouds
497,Muli,MV,2.9167,73.5667,82.87,70,100,18.61,overcast clouds
498,Great Falls,US,47.5002,-111.3008,82.69,26,1,5.75,clear sky
499,Mahina,PF,-17.5065,-149.489,80.37,69,75,18.41,broken clouds
500,Comodoro Rivadavia,AR,-45.8667,-67.5,67.86,15,0,20.71,clear sky
501,Nantou,TW,23.8342,120.927,73.04,89,95,3.85,overcast clouds
502,Esil,KZ,51.9556,66.4042,57.88,56,17,6.85,few clouds
503,Lang Son,VN,21.8333,106.7333,77.38,88,100,2.44,overcast clouds
504,Santa Ines,BR,-3.6667,-45.38,90.99,45,68,6.96,broken clouds
505,Hofn,IS,64.2539,-15.2082,53.62,87,75,3.44,broken clouds
506,Vao,NC,-22.6667,167.4833,65.97,61,62,15.28,broken clouds
507,Port Hawkesbury,CA,45.6169,-61.3485,87.91,78,1,1.01,clear sky
508,Tumpat,MY,6.1978,102.171,76.98,94,20,2.3,few clouds
509,Boa Vista,BR,2.8197,-60.6733,78.78,83,90,3.44,overcast clouds
510,Zhangye,CN,38.9342,100.4517,72.12,36,0,6.91,clear sky
511,Kyzyl-Suu,KG,42.3414,78.0056,57.22,76,100,3.76,overcast clouds
512,Hun,LY,29.1268,15.9477,89.06,26,0,19.17,clear sky
513,Harlingen,US,26.1906,-97.6961,96.35,51,75,13.8,broken clouds
514,San Miguel,SV,13.4833,-88.1833,91,64,20,2.3,few clouds
515,Kota Kinabalu,MY,5.9749,116.0724,76.98,94,20,5.75,moderate rain
516,Darlowo,PL,54.421,16.4107,68.79,75,100,2.82,light rain
517,Harwich,GB,51.9419,1.2844,70.77,68,34,8.01,scattered clouds
518,Kieta,PG,-6.2167,155.6333,78.67,87,100,4.47,light rain
519,Hay River,CA,60.8156,-115.7999,75.18,50,75,10.36,broken clouds
520,Shingu,JP,33.7333,135.9833,79.92,93,100,13.15,moderate rain
521,Naron,ES,43.5167,-8.1528,77.85,81,1,4.74,clear sky
522,Tazovskiy,RU,67.4667,78.7,49.59,97,55,3.31,broken clouds
523,Aswan,EG,24.0934,32.907,99.7,13,0,5.75,clear sky
524,Ilulissat,GL,69.2167,-51.1,53.62,50,75,16.11,light rain
525,Gold Coast,AU,-28,153.4333,61.03,95,79,4.61,broken clouds
526,Sandy Bay,AU,-42.913,147.3532,47.08,75,46,1.99,scattered clouds
527,Jieshi,CN,22.8134,115.8257,81.55,85,100,10.36,overcast clouds
528,Parkland,US,47.1554,-122.434,91.8,44,20,3.44,smoke
529,Kyra,RU,49.5776,111.9753,56.62,87,100,1.83,overcast clouds
530,Tungor,RU,53.3808,142.9564,53.28,84,34,7.61,scattered clouds
531,Viedma,AR,-40.8135,-62.9967,64.63,25,0,19.75,clear sky
532,Nome,US,64.5011,-165.4064,42.87,70,90,5.75,overcast clouds
533,Nantucket,US,41.2835,-70.0995,91.62,78,1,11.5,clear sky
534,Znamenskoye,RU,57.1281,73.8282,51.12,85,20,4.34,few clouds
535,Mapiri,BO,-15.25,-68.1667,78.17,44,100,0.83,overcast clouds
536,Jatibonico,CU,21.9419,-79.17,81.07,82,98,10.56,moderate rain
537,Altay,CN,47.8667,88.1167,61.12,63,97,5.14,overcast clouds
538,Clarksdale,US,34.2001,-90.5709,93.18,52,1,6.91,clear sky
539,Anloga,GH,5.7947,0.8973,79.02,80,100,12.44,overcast clouds
540,Colares,PT,38.7992,-9.4469,85.68,61,0,14.97,clear sky
541,Saint Anthony,US,45.0205,-93.218,79.48,33,1,1.01,clear sky
542,Hegang,CN,47.4,130.3667,56.77,88,4,2.73,clear sky
543,Odweyne,SO,9.4092,45.064,84.42,33,93,14.7,overcast clouds
544,Redwater,US,33.3582,-94.2544,95.92,51,41,3.06,scattered clouds
545,Atbasar,KZ,51.8,68.3333,55.35,61,91,8.05,overcast clouds
546,Pokaran,IN,26.9167,71.9167,87.82,50,84,22.24,broken clouds
547,Rabo De Peixe,PT,37.8,-25.5833,74.71,78,20,10.36,few clouds
548,Bonavista,CA,48.6499,-53.1147,68,85,68,13.71,broken clouds
549,Amalapuram,IN,16.5833,82.0167,79.32,89,100,3.8,overcast clouds
550,Nikel,RU,69.4128,30.222,53.78,92,28,5.21,scattered clouds
551,Zavetnoye,RU,47.1194,43.8903,86.25,39,14,14.7,moderate rain
552,Shujaabad,PK,29.8797,71.2931,91.45,32,2,16.28,clear sky
553,Doka,SD,13.5167,35.7667,77.05,84,100,4.43,overcast clouds
554,Vilyuysk,RU,63.7553,121.6247,59.59,89,8,2.68,clear sky
555,Mizdah,LY,31.4451,12.9801,85.96,35,0,15.97,clear sky
556,Humacao,PR,18.1497,-65.8274,90.63,74,100,8.01,overcast clouds
557,Yerbogachen,RU,61.2767,108.0108,61.43,89,100,4.94,overcast clouds
558,Windhoek,NA,-22.5594,17.0832,59.11,27,0,10.36,clear sky
559,San Carlos,VE,9.6612,-68.5827,87.84,58,45,4.68,scattered clouds
560,Nanortalik,GL,60.1432,-45.2371,49.3,87,45,3.31,scattered clouds
561,Staunton,US,38.1496,-79.0717,95.95,47,75,8.05,thunderstorm
562,Male,MV,4.1748,73.5089,84.15,74,75,16.11,broken clouds
563,Pemangkat,ID,1.1667,108.9667,76.78,89,100,5.75,overcast clouds
564,Killam,CA,52.7834,-111.8518,84.15,26,0,13.8,clear sky
565,Mwinilunga,ZM,-11.7358,24.4293,65.05,22,0,2.98,clear sky
566,Bonfim,BR,3.0833,-59.95,78.31,82,99,4.92,overcast clouds
567,Souillac,MU,-20.5167,57.5167,68.36,88,20,6.91,few clouds
568,Igarka,RU,67.4667,86.5833,51.66,93,100,3.42,overcast clouds
569,San Javier,ES,37.8063,-0.8374,91.24,73,0,3,clear sky
570,Chuchkovo,RU,54.2693,41.4465,64.13,66,100,6.33,overcast clouds
571,Dahanu,IN,19.9667,72.7333,80.33,81,100,11.99,overcast clouds
572,Sibolga,ID,1.7427,98.7792,76.19,91,100,3.85,overcast clouds
573,Paragominas,BR,-2.9667,-47.4833,85.68,56,100,6.31,overcast clouds
574,Candolim,IN,15.5181,73.7626,78.8,100,75,5.75,broken clouds
575,Ternate,ID,0.8,127.4,79.75,80,100,3.09,overcast clouds
576,Coahuayana,MX,18.7333,-103.6833,85.48,58,76,5.82,broken clouds
577,Nerchinskiy Zavod,RU,51.3088,119.61,52,86,21,1.52,few clouds
578,Am Timan,TD,11.0297,20.2827,73.65,92,100,5.82,moderate rain
579,Kavaratti,IN,10.5669,72.642,81.5,74,52,18.59,broken clouds
580,Kapuskasing,CA,49.4169,-82.4331,64.49,67,90,9.22,overcast clouds
581,Port Victoria,KE,0.0939,33.9756,70.97,77,100,12.5,light rain
582,Laem Sing,TH,12.4816,102.0738,80.47,85,100,8.48,overcast clouds
583,Killybegs,IE,54.6333,-8.45,60.51,80,20,16.17,few clouds
584,Yar-Sale,RU,66.8333,70.8333,57.83,94,100,2.68,overcast clouds
585,Hosbach,DE,50,9.2,78.78,65,34,4.9,scattered clouds
586,Havelock,US,34.8791,-76.9013,93.16,75,7,5.99,clear sky
587,Groningen,NL,53.25,6.75,66.27,75,40,5.75,scattered clouds
588,Presidencia Roque Saenz Pena,AR,-26.7852,-60.4388,68.54,23,0,6.24,clear sky
589,Sheridan,US,44.8333,-106.9173,83.32,32,1,4,clear sky
590,Kushima,JP,31.4583,131.2333,77.83,92,100,8.95,overcast clouds
591,Gizo,SB,-8.103,156.8419,80.4,79,39,4.81,scattered clouds
592,Florence,IT,43.7667,11.25,93.29,37,0,2.3,clear sky
593,Pangnirtung,CA,66.1451,-65.7125,53.6,87,75,6.91,broken clouds
594,Dolores,AR,-36.3132,-57.6792,55.04,57,62,7.09,broken clouds
595,Samarai,PG,-10.6167,150.6667,76.19,94,100,15.68,moderate rain
596,Sekoma,BW,-24.4,23.8833,59,23,4,6.06,clear sky
597,Challans,FR,46.8436,-1.8749,77.92,59,0,9.55,clear sky
598,Dubti,ET,11.7361,41.0853,89.02,51,76,17.13,light rain
599,Spring Valley,US,36.108,-115.245,99.01,35,75,1.01,broken clouds
600,Zhuhai,CN,22.2769,113.5678,85.05,89,40,13.8,scattered clouds
601,Suruc,TR,36.9761,38.425,84.4,29,58,11.45,broken clouds
602,Urubicha,BO,-15.3833,-62.95,89.65,24,0,2.62,clear sky
603,Colombo,LK,6.9319,79.8478,80.55,87,100,11.61,overcast clouds
604,Garowe,SO,8.4054,48.4845,77.79,65,24,26.49,few clouds
605,Merke,KZ,42.8728,73.1786,65.07,53,8,4.81,clear sky
606,Kerman,IR,30.2832,57.0788,80.46,13,0,6.91,clear sky
607,Houston,US,29.7633,-95.3633,94.08,65,20,5.99,few clouds
608,Slonim,BY,53.0867,25.3219,65.48,71,80,4.5,broken clouds
609,Ulladulla,AU,-35.35,150.4667,48.87,75,0,4.41,clear sky
610,Laguna,US,38.421,-121.4238,101.64,50,1,3.44,haze
611,Veraval,IN,20.9,70.3667,81.37,80,100,14.18,overcast clouds
612,Teeli,RU,51.0333,90.2333,57.22,91,100,4.07,overcast clouds
613,Mareeba,AU,-17,145.4333,67.48,88,99,2.95,overcast clouds
614,Yuxia,CN,34.0615,108.6291,68.61,85,98,3.42,overcast clouds
615,Monroe,US,43.1501,-77.6831,87.66,71,90,10.36,overcast clouds
616,Ketchikan,US,55.3422,-131.6461,66.67,77,90,11.5,overcast clouds
617,Norsup,VU,-16.0667,167.3833,72.77,80,8,14.47,clear sky
618,Coari,BR,-4.085,-63.1414,95.4,31,70,0.31,light rain
619,Yumen,CN,40.2833,97.2,75.61,21,98,8.93,overcast clouds
620,Luchenza,MW,-16.0069,35.3095,66.58,60,0,13.96,clear sky
621,Ilhabela,BR,-23.7781,-45.3581,63.64,91,100,11.72,overcast clouds
622,Kimbe,PG,-5.5502,150.1429,72.79,92,89,4.45,overcast clouds
623,San Cristobal,VE,7.7669,-72.225,80.78,51,89,5.57,overcast clouds
624,Ponta Delgada,PT,37.7333,-25.6667,75.92,78,20,10.36,few clouds
625,Zehdenick,DE,52.9785,13.3317,80.55,61,100,7.81,overcast clouds
626,Bagrami,AF,34.4938,69.2743,78.78,15,1,13.8,clear sky
627,Saint-Francois,FR,46.4154,3.9054,81.84,65,0,3.44,clear sky
628,Tianpeng,CN,30.9866,103.9393,79.27,90,100,5.57,overcast clouds
629,Ankazobe,MG,-18.3167,47.1167,63.01,75,0,4.81,clear sky
630,Kemijarvi,FI,66.7131,27.4306,55.54,91,71,2.19,broken clouds
631,Chicama,PE,-7.8447,-79.1469,63.14,60,91,10.29,overcast clouds
632,Atasu,KZ,48.6814,71.6433,53.33,67,24,6.2,few clouds
633,Nagornskiy,RU,58.7731,57.5451,54.79,80,8,5.44,clear sky
634,Biak,ID,-0.9131,122.8766,75.15,88,80,8.14,broken clouds
635,Nizhnyaya Omka,RU,55.4338,74.9426,51.46,82,5,7.58,clear sky
636,Durango,MX,24.8333,-104.8333,78.03,38,76,7.43,broken clouds
637,Bucerias,MX,20.75,-105.3333,87.98,71,12,5.39,few clouds
638,Pervomayskiy,RU,53.2485,40.2871,66.27,57,100,7.4,overcast clouds
639,Miramar,US,25.9873,-80.2323,90,75,40,14.97,scattered clouds
640,Boysun,UZ,38.2061,67.1986,71.24,29,0,9.84,clear sky
641,Moose Factory,CA,51.2585,-80.6094,64.4,55,90,10.36,overcast clouds
642,Seddon,AU,-37.8068,144.8916,47.98,87,0,10.36,clear sky
643,Rocha,UY,-34.4833,-54.3333,56.48,63,4,7.52,clear sky
644,Bethlehem,BR,-1.4558,-48.5044,77.04,88,75,10.36,moderate rain
645,La Rioja,ES,42.25,-2.5,85.78,41,5,3.24,clear sky
646,Berekum,GH,7.4534,-2.584,70.99,95,20,4.7,light rain
647,Ambilobe,MG,-13.2,49.05,70.48,84,0,4.83,clear sky
648,Acarau,BR,-2.8856,-40.12,83.5,63,36,20.18,scattered clouds
649,Antibes,FR,43.5624,7.1278,91.76,59,0,9.22,clear sky
650,Lake City,US,30.1897,-82.6393,93.92,36,71,4.59,broken clouds
651,Grafton,US,42.207,-71.6856,94.86,60,75,1.99,broken clouds
652,Mahon,ES,39.8885,4.2658,81.16,78,0,5.75,clear sky
653,Carman,CA,49.4992,-98.0016,72.72,34,0,10.36,clear sky
654,Carire,BR,-3.9506,-40.4733,97.48,25,43,2.3,scattered clouds
655,Nyurba,RU,63.2842,118.3319,61.41,83,100,3.65,overcast clouds
656,Agen,FR,44.2,0.6333,83.55,69,0,4.61,clear sky
657,Gurmatkal,IN,16.8667,77.4,74.93,81,100,6.29,light rain
658,Aba,NG,5.1066,7.3667,76.59,79,31,5.7,scattered clouds
659,Polunochnoye,RU,60.8697,60.4153,59.32,71,11,3.87,few clouds
660,Akyab,MM,20.15,92.9,81.23,85,100,4.54,overcast clouds
661,Torring,DK,55.85,9.4833,63.81,78,0,13,clear sky
662,Mae Sai,TH,20.4335,99.8762,78.12,99,100,1.16,light rain
663,Port Lincoln,AU,-34.7333,135.8667,50.31,86,0,6.67,clear sky
664,Kutum,SD,14.2,24.6667,79.3,55,95,8.32,overcast clouds
665,Koani,TZ,-6.1333,39.2833,76.62,83,75,10.36,broken clouds
666,Zhigalovo,RU,54.8097,105.1578,60.75,97,94,2.55,overcast clouds
667,Ios,GR,36.7333,25.2833,82.06,60,0,21.99,clear sky
668,Palestina,PS,31.9216,35.2033,76.42,67,0,4.97,clear sky
669,Grindavik,IS,63.8424,-22.4338,57.56,82,40,11.5,scattered clouds
670,Araouane,ML,18.9048,-3.5265,98.06,29,100,16.84,overcast clouds
671,Kilmallock,IE,52.4,-8.5772,62.17,74,100,4,overcast clouds
672,Daru,PG,-9.0763,143.2092,76.64,91,100,15.9,overcast clouds
673,Rio Pomba,BR,-21.2747,-43.1792,80.56,46,28,8.86,scattered clouds
674,Codo,BR,-4.4553,-43.8856,98.94,25,91,4.54,overcast clouds
675,Skegness,GB,53.1436,0.3363,72.37,70,22,15.48,few clouds
676,Fare,PF,-16.7,-151.0167,78.62,69,69,14.36,broken clouds
677,Winter Park,US,28.6,-81.3392,91.38,58,20,16.11,few clouds
678,Inirida,CO,3.8653,-67.9239,81.23,84,68,3.53,broken clouds
679,Vanimo,PG,-2.6741,141.3028,76.59,91,100,5.64,overcast clouds
680,San Pedro,PH,14.35,121.0167,81.63,81,40,2.3,scattered clouds
681,Along,IN,28.1667,94.7667,74.84,99,100,0.85,overcast clouds
682,Christchurch,NZ,-43.5333,172.6333,44.47,75,0,4.61,clear sky
683,Batagay-Alyta,RU,67.8006,130.4114,59,60,100,3.53,overcast clouds
684,Uglegorsk,RU,49.0833,142.0333,55.2,87,99,6.15,overcast clouds
685,Aromashevo,RU,56.8602,68.6375,55.92,76,16,3.29,few clouds
686,Vincennes,FR,48.85,2.4333,81.93,51,0,5.75,clear sky
687,Mubi,NG,10.2676,13.2644,72.81,89,100,2.3,light rain
688,Ginda,IN,30.6945,78.4932,65.05,95,59,2.24,broken clouds
