City_ID,City,Country,Lat,Lng,Max Temp,Humidity,Cloudiness,Wind Speed,Current Descrition
0,Rikitea,PF,-23.1203,-134.9692,70.74,67,2,13.91,clear sky
1,Songjianghe,CN,42.1859,127.479,72.72,74,94,3.56,overcast clouds
2,Avarua,CK,-21.2078,-159.775,77.05,78,75,2.3,broken clouds
3,Sao Joao Da Barra,BR,-21.6403,-41.0511,69.82,88,12,15.61,few clouds
4,Aklavik,CA,68.2191,-135.0107,50.83,81,100,3.47,overcast clouds
5,Kodiak,US,57.79,-152.4072,54.93,78,100,1.23,overcast clouds
6,Waingapu,ID,-9.6567,120.2641,87.21,55,6,16.49,clear sky
7,Vila Do Maio,CV,15.1333,-23.2167,77.79,76,99,8.9,overcast clouds
8,Vaini,TO,-21.2,-175.2,68.16,77,90,10.36,overcast clouds
9,Upernavik,GL,72.7868,-56.1549,44.29,77,100,6.26,overcast clouds
10,Lasa,IT,46.6166,10.7002,59.02,83,4,4.03,clear sky
11,Jamestown,US,42.097,-79.2353,76.59,91,90,4.0,overcast clouds
12,Amurzet,RU,47.6967,131.0981,70.41,42,68,9.55,broken clouds
13,Albany,US,42.6001,-73.9662,76.53,86,83,5.06,broken clouds
14,Port Alfred,ZA,-33.5906,26.891,56.19,41,0,8.66,clear sky
15,Saint-Philippe,RE,-21.3585,55.7679,72.1,82,18,7.81,few clouds
16,Ushuaia,AR,-54.8,-68.3,35.26,64,40,11.5,scattered clouds
17,Portland,US,45.5234,-122.6762,84.13,44,20,3.0,smoke
18,Ust-Tsilma,RU,65.441,52.1498,60.67,64,100,5.7,overcast clouds
19,Adrar,MR,20.5022,-10.0711,83.68,18,4,14.03,clear sky
20,Puerto Ayora,EC,-0.7393,-90.3518,69.55,90,88,5.01,overcast clouds
21,Chabahar,IR,25.2919,60.643,82.27,77,11,13.56,few clouds
22,New Norfolk,AU,-42.7826,147.0587,58.5,70,100,4.0,light rain
23,Saint-Georges,GD,12.0564,-61.7485,82.08,83,20,13.8,few clouds
24,Severo-Kurilsk,RU,50.6789,156.125,57.79,70,0,7.92,clear sky
25,Ashta,IN,23.0167,76.7167,78.76,80,51,12.1,broken clouds
26,Cape Town,ZA,-33.9258,18.4232,49.12,93,75,1.14,mist
27,Hermanus,ZA,-34.4187,19.2345,48.9,73,0,2.37,clear sky
28,Saldanha,ZA,-33.0117,17.9442,42.85,76,0,13.76,clear sky
29,San Juan,AR,-31.5375,-68.5364,49.06,42,0,2.35,clear sky
30,Tiksi,RU,71.6872,128.8694,64.67,74,98,16.2,light rain
31,Bluff,NZ,-46.6,168.3333,57.79,78,61,12.82,broken clouds
32,Kahului,US,20.8947,-156.47,80.62,83,75,19.57,light rain
33,Norman Wells,CA,65.282,-126.8329,53.64,94,75,3.44,broken clouds
34,Arraial Do Cabo,BR,-22.9661,-42.0278,69.66,88,0,12.66,clear sky
35,Paranaiba,BR,-19.6772,-51.1908,71.62,30,6,3.4,clear sky
36,Litovko,RU,49.2361,135.1742,69.49,53,6,6.96,clear sky
37,Thompson,CA,55.7435,-97.8558,55.56,94,20,10.36,few clouds
38,Ayan,RU,56.45,138.1667,62.74,72,46,13.96,scattered clouds
39,Alice Springs,AU,-23.7,133.8833,80.15,12,0,14.97,clear sky
40,Busselton,AU,-33.65,115.3333,60.04,65,91,12.68,overcast clouds
41,Mount Gambier,AU,-37.8333,140.7667,53.51,76,40,18.41,light rain
42,San Carlos De Bariloche,AR,-41.1456,-71.3082,33.55,47,0,6.91,clear sky
43,Shafter,US,35.5005,-119.2718,93.67,21,0,11.12,clear sky
44,Porbandar,IN,21.6422,69.6093,82.36,72,100,14.9,overcast clouds
45,Rabo De Peixe,PT,37.8,-25.5833,71.11,94,40,8.05,scattered clouds
46,Palmeira Das Missoes,BR,-27.8994,-53.3136,49.89,96,99,8.68,overcast clouds
47,Castro,BR,-24.7911,-50.0119,59.41,62,100,2.68,overcast clouds
48,Hobart,AU,-42.8794,147.3294,58.86,65,75,8.01,light rain
49,Serrinha,BR,-11.6642,-39.0075,61.23,96,7,4.85,clear sky
50,Mopti,ML,14.6667,-4.0,79.0,73,99,2.59,overcast clouds
51,Nikolskoye,RU,59.7035,30.7861,61.02,80,74,1.23,broken clouds
52,Awjilah,LY,29.1081,21.2869,80.69,43,0,6.93,clear sky
53,Faya,SA,18.3851,42.4509,66.72,51,21,3.67,few clouds
54,Butaritari,KI,3.0707,172.7902,83.25,68,5,10.54,clear sky
55,Faanui,PF,-16.4833,-151.75,79.09,71,13,13.29,few clouds
56,Nuuk,GL,64.1835,-51.7216,45.21,93,90,11.5,overcast clouds
57,Sabzevar,IR,36.2126,57.6819,79.88,29,0,9.22,clear sky
58,Quatre Cocos,MU,-20.2078,57.7625,71.1,80,77,5.23,broken clouds
59,Port Elizabeth,ZA,-33.918,25.5701,43.09,75,0,2.3,clear sky
60,Axim,GH,4.8699,-2.2405,75.49,87,43,8.19,scattered clouds
61,Punta Arenas,CL,-53.15,-70.9167,36.93,74,73,8.43,broken clouds
62,Rondonopolis,BR,-16.4708,-54.6356,73.62,37,48,1.21,scattered clouds
63,Hay River,CA,60.8156,-115.7999,57.18,67,75,3.44,broken clouds
64,Mwingi,KE,-0.9344,38.0601,63.73,79,99,5.99,overcast clouds
65,La Ronge,CA,55.1001,-105.2842,57.45,67,75,10.36,broken clouds
66,Mataura,NZ,-46.1927,168.8643,57.47,71,96,7.07,overcast clouds
67,Saskylakh,RU,71.9167,114.0833,67.75,52,92,10.02,overcast clouds
68,Bengkulu,ID,-3.8004,102.2655,83.89,68,47,5.01,scattered clouds
69,Khorixas,NA,-20.3667,14.9667,55.65,45,4,3.02,clear sky
70,Dabola,GN,10.75,-11.1167,69.91,96,100,2.84,light rain
71,Ribeira Grande,PT,38.5167,-28.7,72.09,88,53,10.27,broken clouds
72,Savantvadi,IN,15.9,73.8167,80.71,74,96,5.23,overcast clouds
73,Broome,US,42.2506,-75.833,75.58,82,1,8.05,clear sky
74,Inirida,CO,3.8653,-67.9239,72.52,98,63,1.99,broken clouds
75,Weligama,LK,5.9667,80.4167,81.3,80,96,12.17,overcast clouds
76,Vila Franca Do Campo,PT,37.7167,-25.4333,72.01,92,13,3.11,few clouds
77,Carnarvon,AU,-24.8667,113.6333,68.07,38,0,17.27,clear sky
78,Dikson,RU,73.5069,80.5464,40.05,93,100,19.91,light rain
79,Cidreira,BR,-30.1811,-50.2056,54.21,84,100,9.64,overcast clouds
80,Derazhnya,UA,49.2692,27.4338,62.47,73,0,2.51,clear sky
81,Zavetnoye,RU,47.1194,43.8903,82.36,39,4,4.34,clear sky
82,Poum,NC,-20.2333,164.0167,72.32,57,52,24.16,broken clouds
83,Wajir,KE,1.7471,40.0573,71.85,66,32,13.04,scattered clouds
84,Isangel,VU,-19.55,169.2667,73.51,64,75,6.91,broken clouds
85,Los Llanos De Aridane,ES,28.6585,-17.9182,67.75,96,0,2.3,clear sky
86,Khatanga,RU,71.9667,102.5,52.66,66,100,18.23,overcast clouds
87,Aasiaat,GL,68.7098,-52.8699,40.37,91,100,10.47,overcast clouds
88,Hilo,US,19.7297,-155.09,78.53,88,90,4.61,moderate rain
89,Ahuimanu,US,21.4447,-157.8378,83.91,71,75,9.22,broken clouds
90,Diu,IN,20.7141,70.9822,83.12,71,100,13.91,overcast clouds
91,Abakaliki,NG,6.3163,8.1169,72.43,97,99,5.28,light rain
92,Atuona,PF,-9.8,-139.0333,77.49,78,21,22.53,light rain
93,Honningsvag,NO,70.9821,25.9704,58.75,88,75,8.05,light rain
94,Barrow,US,71.2906,-156.7887,37.42,76,90,9.22,overcast clouds
95,Lebu,CL,-37.6167,-73.65,44.33,83,2,16.46,clear sky
96,Svetlogorsk,BY,52.6333,29.7333,61.95,73,2,2.91,clear sky
97,Talakan,RU,50.3167,130.3667,73.35,45,100,5.03,overcast clouds
98,Urucui,BR,-7.2294,-44.5561,76.68,48,2,3.65,clear sky
99,Ancud,CL,-41.8697,-73.8203,44.22,91,9,5.41,clear sky
100,Bethel,US,41.3712,-73.414,75.56,89,75,3.44,broken clouds
101,Racine,US,42.7495,-88.0751,71.13,94,12,0.0,few clouds
102,Yellowknife,CA,62.456,-114.3525,54.12,76,90,4.61,overcast clouds
103,East London,ZA,-33.0153,27.9116,47.34,61,0,9.22,clear sky
104,Tynda,RU,55.1667,124.7167,71.46,52,13,0.94,few clouds
105,Bredasdorp,ZA,-34.5322,20.0403,36.72,93,0,4.61,clear sky
106,Saint George,US,37.1041,-113.5841,92.95,21,1,1.99,clear sky
107,Roma,US,43.2128,-75.4557,77.83,89,91,4.0,overcast clouds
108,Sarangani,PH,5.4033,125.4636,84.27,74,65,12.97,broken clouds
109,Fortuna,US,40.5982,-124.1573,74.43,89,75,0.0,broken clouds
110,Bambous Virieux,MU,-20.3428,57.7575,71.22,94,75,5.75,broken clouds
111,Batagay-Alyta,RU,67.8006,130.4114,78.15,35,99,10.13,overcast clouds
112,Rocha,UY,-34.4833,-54.3333,43.41,71,85,6.98,overcast clouds
113,Hobyo,SO,5.3505,48.5268,76.87,83,97,20.33,overcast clouds
114,Bud,US,39.447,-86.1758,80.58,78,69,8.97,broken clouds
115,Cayambe,EC,0.05,-78.1333,47.46,87,100,5.91,overcast clouds
116,Prince Rupert,CA,54.3161,-130.3201,58.69,94,90,0.0,overcast clouds
117,Manchester,GB,53.4809,-2.2374,57.99,90,20,3.44,few clouds
118,Sabang,ID,5.8933,95.3214,78.85,86,99,25.66,overcast clouds
119,Redding,US,40.5865,-122.3917,91.69,30,90,1.01,smoke
120,Gizo,SB,-8.103,156.8419,83.12,74,10,7.29,moderate rain
121,Souillac,MU,-20.5167,57.5167,71.37,94,75,5.75,broken clouds
122,Zambezi,ZM,-13.5432,23.1047,54.77,27,0,8.37,clear sky
123,Muyezerskiy,RU,63.9333,31.65,58.96,82,11,5.26,few clouds
124,Doka,SD,13.5167,35.7667,69.91,97,93,9.13,overcast clouds
125,Lavrentiya,RU,65.5833,-171.0,45.0,72,99,6.22,overcast clouds
126,Georgetown,MY,5.4112,100.3354,85.89,78,20,5.75,few clouds
127,Kapaa,US,22.0752,-159.319,82.72,72,40,1.01,scattered clouds
128,Ahipara,NZ,-35.1667,173.1667,57.22,74,20,9.98,few clouds
129,Diego De Almagro,CL,-26.3667,-70.05,52.36,52,0,0.36,clear sky
130,Longyearbyen,SJ,78.2186,15.6401,49.59,72,19,1.97,few clouds
131,Bokoro,TD,12.3807,17.0568,75.11,89,99,3.4,overcast clouds
132,Oblivskaya,RU,48.5362,42.5014,77.05,58,65,3.44,broken clouds
133,Chapais,CA,49.7834,-74.8492,67.78,95,100,8.68,overcast clouds
134,Ilulissat,GL,69.2167,-51.1,44.62,93,90,4.61,light rain
135,Quelimane,MZ,-17.8786,36.8883,60.75,94,40,3.44,scattered clouds
136,Constitucion,CL,-35.3333,-72.4167,46.65,62,0,6.33,clear sky
137,Oriximina,BR,-1.7656,-55.8661,79.56,58,39,3.78,scattered clouds
138,Auxerre,FR,47.8,3.5667,55.63,86,2,0.65,clear sky
139,Penha,BR,-26.7694,-48.6458,61.56,91,100,10.6,overcast clouds
140,Henties Bay,NA,-22.116,14.2845,56.86,94,31,7.67,scattered clouds
141,Lensk,RU,60.7253,114.9278,76.69,42,68,2.26,broken clouds
142,Tasiilaq,GL,65.6145,-37.6368,42.96,87,97,5.28,overcast clouds
143,Santa Fe,AR,-31.6333,-60.7,46.0,67,0,1.01,clear sky
144,Tuktoyaktuk,CA,69.4541,-133.0374,53.6,71,75,8.05,broken clouds
145,Esso,RU,55.9333,158.7,65.55,50,24,8.03,few clouds
146,Murray Bridge,AU,-35.1167,139.2667,59.31,72,91,20.87,light rain
147,Odweyne,SO,9.4092,45.064,71.01,63,42,17.96,scattered clouds
148,Mayumba,GA,-3.432,10.6554,74.25,89,93,2.44,overcast clouds
149,Xining,CN,36.6167,101.7667,68.88,42,97,7.36,overcast clouds
150,Victoria,HK,22.2855,114.1577,89.96,77,94,9.13,overcast clouds
151,Eureka,US,40.8021,-124.1637,74.68,84,32,2.55,scattered clouds
152,Farmington,US,36.7281,-108.2187,75.88,38,1,8.05,clear sky
153,Tashtagol,RU,52.7657,87.8894,64.89,76,96,0.78,overcast clouds
154,Kasongo-Lunda,CD,-6.4667,16.8167,67.14,70,1,1.23,clear sky
155,Cherskiy,RU,68.75,161.3,59.25,49,61,6.2,broken clouds
156,Marienburg,PL,54.0359,19.0266,60.85,92,99,7.54,overcast clouds
157,Iquitos,PE,-3.7481,-73.2472,77.04,88,75,4.61,broken clouds
158,San Patricio,US,28.017,-97.5169,84.85,72,0,12.24,clear sky
159,Zyryanka,RU,65.75,150.85,80.1,29,7,8.01,clear sky
160,El Oro,MX,26.8667,-105.85,69.94,44,67,7.7,broken clouds
161,Iskateley,RU,67.6803,53.1512,60.42,62,100,12.39,overcast clouds
162,Qaanaaq,GL,77.484,-69.3632,43.79,76,100,10.2,overcast clouds
163,Mar Del Plata,AR,-38.0023,-57.5575,33.82,80,0,9.22,clear sky
164,Bouna,CI,9.2667,-3.0,69.4,99,92,4.9,moderate rain
165,Deer Lake,CA,49.1667,-57.4316,66.06,82,75,10.36,broken clouds
166,Hearst,CA,49.6835,-83.6665,71.85,88,100,7.65,overcast clouds
167,Dalby,AU,-27.1833,151.2667,68.7,44,37,15.37,scattered clouds
168,Provideniya,RU,64.3833,-173.3,48.31,66,75,6.71,broken clouds
169,Macenta,GN,8.5435,-9.471,68.4,100,100,1.16,overcast clouds
170,Surgut,RU,61.25,73.4167,55.58,67,40,13.42,scattered clouds
171,Kaitangata,NZ,-46.2817,169.8464,57.18,67,89,6.29,overcast clouds
172,Dingle,PH,10.9995,122.6711,88.0,60,79,5.41,broken clouds
173,Oktyabrskoye,RU,43.0645,44.7417,69.94,83,66,6.71,broken clouds
174,Mastic Beach,US,40.7668,-72.8521,75.38,89,1,1.01,clear sky
175,Tautira,PF,-17.7333,-149.15,78.82,81,72,16.89,light rain
176,Eyl,SO,7.9803,49.8164,77.09,71,65,19.69,broken clouds
177,Laguna,US,38.421,-121.4238,93.04,31,1,6.91,clear sky
178,Dolores,AR,-36.3132,-57.6792,36.14,76,0,7.02,light rain
179,Olafsvik,IS,64.8945,-23.7142,54.37,83,94,8.63,overcast clouds
180,Asau,RO,46.4333,26.4,63.95,75,58,4.34,broken clouds
181,Cabo San Lucas,MX,22.8909,-109.9124,84.06,84,100,11.27,overcast clouds
182,Hofn,IS,64.2539,-15.2082,50.05,86,16,9.82,few clouds
183,Obihiro,JP,42.9172,143.2044,69.21,64,91,7.05,overcast clouds
184,Pochutla,MX,15.7432,-96.4661,78.82,92,100,3.83,overcast clouds
185,Komsomolskiy,UZ,40.4272,71.7189,83.12,26,0,4.61,clear sky
186,Capiibary,PY,-24.8,-56.0333,53.2,88,100,5.3,overcast clouds
187,Vila,PT,42.0304,-8.1588,56.34,89,0,3.13,clear sky
188,Puerto Madryn,AR,-42.7692,-65.0385,42.85,72,2,11.99,clear sky
189,Kyaukse,MM,21.6,96.1333,89.6,66,75,9.22,broken clouds
190,Ban Nahin,LA,18.2418,104.2122,84.92,81,100,3.78,moderate rain
191,Braganca,BR,-1.0536,-46.7656,73.94,97,70,1.45,broken clouds
192,Kurilsk,RU,45.2333,147.8833,54.39,83,100,20.76,light rain
193,Yerbogachen,RU,61.2767,108.0108,73.29,46,70,2.8,broken clouds
194,Kysyl-Syr,RU,63.8986,122.7617,60.82,94,100,3.78,light rain
195,Yaan,NG,7.3833,8.5667,70.56,98,94,5.61,overcast clouds
196,Erenhot,CN,43.6475,111.9767,76.01,27,1,2.93,clear sky
197,Geraldton,AU,-28.7667,114.6,63.01,59,75,8.05,broken clouds
198,Karagay,RU,58.2667,54.9368,60.33,65,0,4.83,clear sky
199,Tual,ID,-5.6667,132.75,80.37,83,94,19.37,overcast clouds
200,Itupiranga,BR,-5.1347,-49.3267,71.92,50,0,1.25,clear sky
201,Ternuvate,UA,47.8305,36.1276,67.48,69,99,3.11,overcast clouds
202,Mabaruma,GY,8.2,-59.7833,74.03,99,23,2.75,few clouds
203,Russell,US,32.3502,-85.1999,75.38,96,78,3.67,broken clouds
204,Irbil,IQ,36.1926,44.0106,88.83,25,0,0.56,clear sky
205,Kavaratti,IN,10.5669,72.642,81.73,79,100,20.2,moderate rain
206,Ardabil,IR,38.2498,48.2933,69.35,32,40,6.91,scattered clouds
207,Lyaskelya,RU,61.7667,31.0167,57.9,84,98,1.12,overcast clouds
208,Te Anau,NZ,-45.4167,167.7167,47.14,96,100,5.97,overcast clouds
209,Pachino,IT,36.7186,15.0907,91.6,42,0,10.07,clear sky
210,Luba,GQ,3.4568,8.5547,76.89,86,42,8.12,light rain
211,Brae,GB,60.3964,-1.353,53.51,88,99,6.04,overcast clouds
212,Tatarsk,RU,55.219,75.9828,62.11,94,100,2.1,light rain
213,Ponta Do Sol,PT,32.6667,-17.1,73.0,83,26,3.49,scattered clouds
214,Port-Cartier,CA,50.0334,-66.8654,61.02,99,100,1.23,overcast clouds
215,Cabatuan,PH,10.8794,122.486,87.57,60,60,5.61,broken clouds
216,Forio,IT,40.7342,13.8646,85.44,71,15,6.53,few clouds
217,Shingu,JP,33.7333,135.9833,83.39,67,100,9.91,light rain
218,Talnakh,RU,69.4865,88.3972,45.73,84,100,6.4,overcast clouds
219,Suntar,RU,62.1444,117.6319,75.45,43,84,3.09,broken clouds
220,Lagoa,PT,39.05,-27.9833,71.55,84,100,14.41,overcast clouds
221,Oak Ridge,US,36.0104,-84.2696,76.01,84,93,2.55,overcast clouds
222,Megion,RU,61.0296,76.1136,55.42,59,75,18.52,broken clouds
223,Lorengau,PG,-2.0226,147.2712,85.8,64,55,8.68,broken clouds
224,Wahiawa,US,21.5028,-158.0236,80.92,75,93,6.29,overcast clouds
225,Naze,JP,28.3667,129.4833,83.32,83,97,16.53,overcast clouds
226,Saint Anthony,US,45.0205,-93.218,74.82,72,1,3.44,clear sky
227,Nouadhibou,MR,20.931,-17.0347,68.68,80,6,21.03,clear sky
228,Elk City,US,35.412,-99.4043,86.49,54,1,6.91,clear sky
229,Tura,IN,25.5198,90.2201,78.46,94,100,5.88,moderate rain
230,Ampanihy,MG,-24.7,44.75,59.85,88,3,7.85,clear sky
231,Kilindoni,TZ,-7.9139,39.6668,75.96,70,0,17.67,clear sky
232,Cedar City,US,37.6775,-113.0619,74.37,26,1,8.05,clear sky
233,Port Hedland,AU,-20.3167,118.5667,77.05,19,0,17.27,clear sky
234,Namatanai,PG,-3.6667,152.4333,85.05,63,18,5.06,few clouds
235,Primo Tapia,MX,32.22,-116.9172,75.51,80,23,3.71,few clouds
236,Sitka,US,57.0531,-135.33,57.09,88,90,11.5,light rain
237,Ulladulla,AU,-35.35,150.4667,79.88,42,0,11.45,clear sky
238,Esperance,AU,-33.8667,121.9,58.84,67,63,16.71,broken clouds
239,Nome,US,64.5011,-165.4064,53.67,63,90,12.66,overcast clouds
240,Ushtobe,KZ,45.2514,77.9838,83.07,26,90,4.65,overcast clouds
241,Tezu,IN,27.9167,96.1667,87.24,73,99,2.28,overcast clouds
242,Mahanoro,MG,-19.9,48.8,65.44,86,42,5.35,light rain
243,Grand Gaube,MU,-20.0064,57.6608,71.38,89,67,4.0,broken clouds
244,Gobabis,NA,-22.45,18.9667,52.79,29,49,12.37,scattered clouds
245,Inndyr,NO,67.0338,14.0276,54.64,97,99,8.16,overcast clouds
246,Caravelas,BR,-17.7125,-39.2481,66.88,89,1,3.53,clear sky
247,Balkhash,KZ,46.844,74.9804,79.41,31,84,4.47,smoke
248,Noumea,NC,-22.2763,166.4572,71.58,60,80,15.86,broken clouds
249,Port Hardy,CA,50.6996,-127.4199,60.98,88,20,4.61,fog
250,Tuatapere,NZ,-46.1333,167.6833,57.81,88,97,7.11,overcast clouds
251,Vanimo,PG,-2.6741,141.3028,85.93,63,88,7.7,overcast clouds
252,Todos Santos,MX,23.45,-110.2167,82.0,81,99,9.78,overcast clouds
253,Carballo,ES,43.213,-8.691,62.91,93,62,2.8,broken clouds
254,Pangody,RU,65.85,74.4859,58.73,57,1,13.47,clear sky
255,Waipawa,NZ,-41.4122,175.5153,54.03,67,32,1.86,scattered clouds
256,Chimbote,PE,-9.0853,-78.5783,62.53,82,67,8.7,broken clouds
257,Meadow Lake,US,34.8014,-106.5436,78.28,58,93,3.33,overcast clouds
258,Garden City,US,42.3256,-83.331,83.59,79,90,1.01,overcast clouds
259,Buchanan,LR,5.8808,-10.0467,76.71,86,91,8.34,overcast clouds
260,Pimentel,PE,-6.8367,-79.9342,63.0,82,66,4.0,broken clouds
261,Aroysund,NO,59.1806,10.455,57.33,100,20,3.44,fog
262,Bima,ID,-8.4667,118.7167,93.29,40,10,6.2,clear sky
263,Hoshcha,UA,50.6003,26.6744,61.05,77,3,5.41,clear sky
264,Kibala,TD,9.1104,18.3463,75.15,88,20,4.61,thunderstorm
265,Teguldet,RU,57.3064,88.1667,65.88,91,100,5.14,light rain
266,Kreminna,UA,49.0495,38.2179,74.82,59,56,1.59,broken clouds
267,Vao,NC,-22.6667,167.4833,67.41,61,43,23.09,scattered clouds
268,Lichinga,MZ,-13.3128,35.2406,50.09,76,20,11.5,few clouds
269,Badou,TG,7.5833,0.6,69.85,94,87,3.65,overcast clouds
270,Buala,SB,-8.145,159.5921,84.0,73,69,10.58,light rain
271,Flin Flon,CA,54.7682,-101.865,52.39,92,100,14.09,overcast clouds
272,Sakassou,CI,7.4546,-5.2926,71.44,99,90,4.81,overcast clouds
273,Sainte-Rose,GP,16.3324,-61.6979,80.64,89,0,6.91,clear sky
274,Pemba,MZ,-12.974,40.5178,72.3,78,75,8.05,broken clouds
275,Chinhoyi,ZW,-17.3667,30.2,51.26,85,0,5.79,clear sky
276,Santa Isabel Do Rio Negro,BR,-0.4139,-65.0192,74.21,87,95,2.04,overcast clouds
277,Jalu,LY,29.0331,21.5482,80.35,44,0,6.85,clear sky
278,Alpena,US,45.0617,-83.4327,75.34,94,1,9.22,light rain
279,Wum,CM,6.3833,10.0667,62.58,97,67,2.42,broken clouds
280,Mount Isa,AU,-20.7333,139.5,85.77,19,5,5.75,clear sky
281,Kabanjahe,ID,3.1001,98.4908,66.96,69,85,4.03,overcast clouds
282,North Bend,US,43.4065,-124.2243,63.91,94,1,13.8,clear sky
283,Saint-Pierre,RE,-21.3393,55.4781,72.18,78,0,5.75,clear sky
284,Saku,JP,36.2167,138.4833,82.78,60,98,1.34,light rain
285,Kuytun,RU,54.3419,101.5036,75.96,34,0,12.46,clear sky
286,Seydi,TM,39.4816,62.9137,87.91,20,0,14.07,clear sky
287,Ciudad Bolivar,VE,8.1222,-63.5497,77.16,88,17,6.93,few clouds
288,Yakeshi,CN,49.2833,120.7333,61.45,72,98,11.3,overcast clouds
289,Mamallapuram,IN,12.6264,80.1722,91.45,58,100,11.63,overcast clouds
290,Burnie,AU,-41.0667,145.9167,53.92,87,100,26.46,light rain
291,Jizan,SA,17.3333,42.6667,88.74,66,29,2.66,scattered clouds
292,Pevek,RU,69.7008,170.3133,38.8,77,79,10.49,broken clouds
293,Pitimbu,BR,-7.4706,-34.8086,73.99,90,32,8.05,scattered clouds
294,Mantua,IT,45.1667,10.7833,70.83,83,1,1.99,clear sky
295,Kalmunai,LK,7.4167,81.8167,80.02,77,100,7.14,overcast clouds
296,Nantucket,US,41.2835,-70.0995,74.97,95,90,9.22,overcast clouds
297,Lermontovka,RU,47.1453,134.3383,71.19,46,80,3.71,broken clouds
298,Vurnary,RU,55.4904,46.9648,67.28,73,100,8.43,overcast clouds
299,Mineiros,BR,-17.5694,-52.5511,67.64,35,38,1.79,scattered clouds
300,Port-Gentil,GA,-0.7193,8.7815,76.42,79,5,12.3,clear sky
301,Daura,NG,11.5538,11.4085,71.64,94,100,9.6,light rain
302,Alta Gracia,AR,-31.6529,-64.4283,35.87,58,0,1.16,clear sky
303,Cyangugu,RW,-2.4846,28.9075,60.19,84,100,0.49,overcast clouds
304,Half Moon Bay,US,37.4636,-122.4286,74.91,80,1,0.0,clear sky
305,Bandar-E Lengeh,IR,26.5579,54.8807,93.31,75,0,16.11,haze
306,Chokurdakh,RU,70.6333,147.9167,70.92,38,87,6.82,overcast clouds
307,Tiznit,MA,29.5833,-9.5,59.63,89,37,2.01,scattered clouds
308,Saint-Augustin,CA,51.226,-58.6502,64.42,93,67,4.5,broken clouds
309,Nam Som,TH,17.7704,102.1895,86.34,83,100,2.82,very heavy rain
310,Puerto Carreno,CO,6.189,-67.4859,74.62,93,88,4.27,overcast clouds
311,Clyde River,CA,70.4692,-68.5914,35.83,93,20,2.3,mist
312,Dalvik,IS,65.9702,-18.5286,44.53,67,74,0.96,broken clouds
313,Ust-Nera,RU,64.5667,143.2,80.65,25,29,4.76,scattered clouds
314,Darhan,MN,49.4867,105.9228,72.36,50,55,0.92,broken clouds
315,Big Rapids,US,43.6981,-85.4837,71.04,94,90,6.91,heavy intensity rain
316,Lata,PT,40.1629,-8.3327,63.91,93,49,2.24,scattered clouds
317,Denpasar,ID,-8.65,115.2167,83.86,74,40,12.66,scattered clouds
318,Slobidka,UA,47.8869,29.3461,62.58,70,0,8.19,clear sky
319,Anadyr,RU,64.75,177.4833,61.3,63,20,6.71,few clouds
320,Manjeshwar,IN,12.7194,74.8861,79.75,78,88,5.64,overcast clouds
321,Formosa Do Rio Preto,BR,-11.0483,-45.1931,72.46,45,61,2.86,broken clouds
322,Atherton,GB,53.5237,-2.4935,57.9,91,100,1.99,overcast clouds
323,Salalah,OM,17.0151,54.0924,77.09,88,90,3.44,overcast clouds
324,Bacungan,PH,9.9106,118.7022,88.7,57,87,7.63,overcast clouds
325,Raga,SS,8.4596,25.678,67.73,97,100,4.07,overcast clouds
326,Cockburn Town,TC,21.4612,-71.1419,82.63,77,0,19.98,clear sky
327,Bull Savanna,JM,17.8868,-77.5902,77.59,73,57,4.05,broken clouds
328,Ipixuna,BR,-1.7625,-48.8043,75.15,93,19,3.2,light rain
329,The Valley,AI,18.217,-63.0578,82.26,84,100,18.7,overcast clouds
330,Avera,US,33.194,-82.5271,79.72,81,27,4.94,scattered clouds
331,Tateyama,JP,34.9833,139.8667,91.42,73,90,3.85,overcast clouds
332,Portobelo,PA,9.55,-79.65,77.86,82,100,4.56,overcast clouds
333,Guilin,CN,25.2819,110.2864,82.51,89,100,2.28,overcast clouds
334,Hambantota,LK,6.1241,81.1185,88.14,70,40,12.66,scattered clouds
335,Cocobeach,GA,1.0002,9.5823,75.13,84,44,8.5,light rain
336,Koumac,NC,-20.5667,164.2833,73.81,48,60,12.39,broken clouds
337,Kartuzy,PL,54.3342,18.1974,58.59,98,0,4.61,clear sky
338,Jiaohe,CN,43.7286,127.3447,70.68,86,100,5.66,overcast clouds
339,Luderitz,NA,-26.6481,15.1594,55.99,82,83,14.0,broken clouds
340,Tabasco,MX,18.0,-92.6667,77.09,85,86,3.53,overcast clouds
341,Winslow,US,35.0242,-110.6974,73.58,67,1,1.01,clear sky
342,Sembakung,ID,3.8167,117.25,80.53,52,100,1.9,moderate rain
343,Cabrero,CL,-37.0333,-72.4,41.43,85,0,8.05,clear sky
344,Nemuro,JP,43.3236,145.575,64.83,76,95,25.17,overcast clouds
345,Zhigansk,RU,66.7697,123.3711,66.15,69,100,10.85,overcast clouds
346,Almaznyy,RU,48.0448,40.045,71.74,70,21,4.12,few clouds
347,Auki,SB,-8.7676,160.7034,82.44,73,72,6.06,broken clouds
348,Codrington,AU,-38.2667,141.9667,51.48,91,100,21.36,light rain
349,Kiyasovo,RU,56.3491,53.1244,62.19,58,0,10.65,clear sky
350,Vardo,NO,70.3705,31.1107,54.25,97,100,9.08,overcast clouds
351,Ambilobe,MG,-13.2,49.05,67.42,84,13,3.15,few clouds
352,Roald,NO,62.5833,6.1333,60.33,94,75,3.44,broken clouds
353,Airai,TL,-8.9266,125.4092,72.14,61,64,4.63,broken clouds
354,Ixtapa,MX,20.7,-105.2,77.23,100,90,9.22,overcast clouds
355,Say,NE,13.1007,2.3689,75.76,94,100,12.12,heavy intensity rain
356,Shaunavon,CA,49.6501,-108.4181,56.98,56,93,11.9,overcast clouds
357,Rokytne,UA,51.2796,27.214,61.23,75,4,4.7,clear sky
358,Lengshuijiang,CN,27.6881,111.4294,82.69,87,100,1.74,overcast clouds
359,High Rock,BS,26.6208,-78.2833,78.82,71,4,13.09,clear sky
360,Smoky Lake,CA,54.1169,-112.4686,61.48,63,88,1.14,overcast clouds
361,Jaguarari,BR,-10.2639,-40.1958,61.43,88,16,6.31,few clouds
362,Hamilton,US,39.1834,-84.5333,80.58,92,20,1.01,few clouds
363,Vila Velha,BR,-20.3297,-40.2925,69.75,88,40,5.75,scattered clouds
364,Adamantina,BR,-21.6853,-51.0725,64.15,36,16,5.55,few clouds
365,Hithadhoo,MV,-0.6,73.0833,81.5,70,60,7.65,broken clouds
366,Sept-Iles,CA,50.2001,-66.3821,61.32,96,75,3.44,broken clouds
367,Tomari,RU,47.7658,142.0683,64.74,60,3,10.87,clear sky
368,Coihaique,CL,-45.5752,-72.0662,33.75,86,0,8.05,clear sky
369,Port Moresby,PG,-9.4431,147.1797,87.22,66,40,11.5,haze
370,Cap-Aux-Meules,CA,47.3821,-61.8597,68.02,88,69,12.66,broken clouds
371,Emerald,AU,-23.5333,148.1667,73.54,53,90,9.22,overcast clouds
372,Karpogory,RU,64.0019,44.4451,60.96,75,81,7.78,broken clouds
373,Liaozhong,CN,41.5061,122.7242,75.69,70,69,9.37,broken clouds
374,Kudahuvadhoo,MV,2.6708,72.8944,82.51,75,100,13.35,overcast clouds
375,Soyo,AO,-6.1349,12.3689,72.64,91,25,7.63,scattered clouds
376,High Level,CA,58.5169,-117.136,62.71,55,90,3.44,overcast clouds
377,Hasaki,JP,35.7333,140.8333,88.2,73,86,8.7,overcast clouds
378,George Town,MY,5.4112,100.3354,85.89,78,20,5.75,few clouds
379,Bathsheba,BB,13.2167,-59.5167,79.41,89,20,10.36,few clouds
380,Chiredzi,ZW,-21.05,31.6667,52.0,89,6,4.03,clear sky
381,Fare,PF,-16.7,-151.0167,78.98,72,14,13.56,few clouds
382,Nadym,RU,65.5333,72.5167,58.86,59,0,12.46,clear sky
383,Saint-Francois,FR,46.4154,3.9054,64.18,97,90,2.3,fog
384,Esterhazy,CA,50.65,-102.0843,59.85,60,15,14.38,light rain
385,Tilichiki,RU,60.4667,166.1,66.92,48,7,15.97,clear sky
386,Port Blair,IN,11.6667,92.75,78.84,83,75,6.91,drizzle
387,Shirvan,AZ,39.9509,48.8994,89.46,37,100,5.57,overcast clouds
388,Zhezkazgan,KZ,47.8043,67.7144,74.17,40,78,4.74,broken clouds
389,Villazon,BO,-22.0866,-65.5942,43.83,18,37,0.47,scattered clouds
390,Marsa Matruh,EG,31.3525,27.2453,80.8,74,0,9.22,clear sky
391,Aita Mare,RO,45.9667,25.55,65.19,79,18,1.07,few clouds
392,Okhotsk,RU,59.3833,143.3,67.39,63,4,7.27,clear sky
393,Ambon,ID,-3.6954,128.1814,89.74,66,40,3.44,moderate rain
394,Mahebourg,MU,-20.4081,57.7,72.25,94,75,5.75,broken clouds
395,Taitung,TW,22.7583,121.1444,86.27,79,75,8.05,broken clouds
396,Godo,JP,35.4167,136.6,84.02,50,100,3.13,overcast clouds
397,Amatitan,MX,20.8333,-103.7167,71.11,96,71,2.28,broken clouds
398,Labuhan,ID,-6.8844,112.2051,86.38,49,15,8.32,few clouds
399,Verkhovazhye,RU,60.7472,42.0465,63.5,99,100,2.95,overcast clouds
400,Arkhipo-Osipovka,RU,44.37,38.52,73.76,86,50,5.12,moderate rain
401,Westport,US,41.1415,-73.3579,75.92,93,1,1.99,clear sky
402,Sola,VU,-13.8833,167.55,78.04,78,96,27.89,overcast clouds
403,Sioux Lookout,CA,50.1001,-91.917,68.07,64,90,8.05,overcast clouds
404,College,US,64.8569,-147.8028,57.15,87,75,11.5,moderate rain
405,Ouesso,CG,1.6136,16.0517,71.33,82,95,1.97,overcast clouds
406,Beringovskiy,RU,63.05,179.3167,53.44,67,47,9.62,scattered clouds
407,Mareeba,AU,-17.0,145.4333,79.48,59,0,7.74,clear sky
408,Manzanillo,CU,20.3433,-77.1167,77.43,84,85,11.01,overcast clouds
409,Havoysund,NO,70.9963,24.6622,59.23,90,91,7.45,moderate rain
410,Arkhangelsk,RU,64.5401,40.5433,64.51,94,90,2.24,mist
411,Aketi,CD,2.7388,23.7833,67.77,95,100,1.39,overcast clouds
412,Klaksvik,FO,62.2266,-6.589,49.12,87,96,4.25,overcast clouds
413,Guerrero Negro,MX,27.9769,-114.0611,76.15,69,10,5.95,clear sky
414,Suhbaatar,MN,50.2314,106.2078,73.02,57,45,2.3,scattered clouds
415,Gra Liyia,GR,35.0167,25.6833,85.44,49,0,8.9,clear sky
416,Chahal,GT,15.75,-89.5667,70.95,94,83,3.02,broken clouds
417,Sao Filipe,CV,14.8961,-24.4956,76.87,81,55,3.83,broken clouds
418,Hovd,MN,48.0056,91.6419,73.71,26,91,6.2,overcast clouds
419,Baykit,RU,61.67,96.37,76.35,36,66,3.74,broken clouds
420,Bubaque,GW,11.2833,-15.8333,78.93,82,90,5.99,light rain
421,Yangjiang,CN,21.85,111.9667,86.58,73,100,10.51,light rain
422,Rio Grande,BR,-32.035,-52.0986,48.94,77,59,13.38,broken clouds
423,Lake Havasu City,US,34.4839,-114.3224,87.1,53,1,4.61,moderate rain
424,Fillan,NO,63.6064,8.9696,55.38,93,76,2.46,broken clouds
425,Calabar,NG,4.9517,8.322,72.41,96,85,2.55,light rain
426,Chuy,UY,-33.6971,-53.4616,40.57,82,5,7.36,clear sky
427,Novikovo,RU,51.1537,37.8879,76.95,40,96,9.64,light rain
428,Pacific Grove,US,36.6177,-121.9166,67.8,88,20,3.44,few clouds
429,Camana,PE,-16.6228,-72.7111,59.95,85,71,6.2,broken clouds
430,Cuamba,MZ,-14.8031,36.5372,55.15,90,0,3.74,clear sky
431,Clarence Town,AU,-32.5833,151.7833,77.81,33,0,9.66,clear sky
432,Fairview,US,40.8126,-73.999,74.48,87,40,0.0,scattered clouds
433,Boshnyakovo,RU,49.6333,142.1667,61.74,67,6,8.1,clear sky
434,Qarqin,AF,37.4185,66.0436,85.6,15,0,5.84,clear sky
435,Plettenberg Bay,ZA,-34.0527,23.3716,52.09,38,0,4.83,clear sky
436,Nouakchott,MR,18.0858,-15.9785,76.93,74,16,18.54,few clouds
437,Boden,SE,65.8252,21.6886,59.0,96,97,3.49,overcast clouds
438,Pilar,BR,-9.5972,-35.9567,71.53,95,67,4.74,broken clouds
439,Namtsy,RU,62.7161,129.6658,77.11,44,97,6.24,overcast clouds
440,Illapel,CL,-31.6308,-71.1653,51.84,62,2,1.74,clear sky
441,Iquique,CL,-20.2208,-70.1431,59.04,78,69,2.77,broken clouds
442,Torbay,CA,47.6666,-52.7314,58.57,90,75,17.27,broken clouds
443,Gamba,GA,-2.65,10.0,73.87,87,71,5.32,broken clouds
444,Grand-Lahou,CI,5.1367,-5.0242,74.97,90,53,7.67,light rain
445,Wamba,NG,8.9333,8.6,69.33,98,87,1.81,light rain
446,Benguela,AO,-12.5763,13.4055,69.8,90,2,3.24,clear sky
447,Lethem,GY,3.3803,-59.7968,74.17,92,94,4.07,moderate rain
448,San Pedro De Macoris,DO,18.4616,-69.2972,80.49,87,100,9.44,overcast clouds
449,Husavik,IS,66.0449,-17.3389,44.51,62,52,6.58,broken clouds
450,Wanning,CN,18.8003,110.3967,88.93,71,100,11.86,overcast clouds
451,Kangaatsiaq,GL,68.3065,-53.4641,43.16,85,80,21.83,broken clouds
452,Taoudenni,ML,22.6783,-3.9836,98.62,21,55,11.9,broken clouds
453,Pizarro,CO,4.9533,-77.366,75.29,92,100,1.97,moderate rain
454,Aswan,EG,24.0934,32.907,87.1,25,0,0.0,clear sky
455,Katete,UG,-0.7818,29.7544,61.45,93,96,2.21,moderate rain
456,Merauke,ID,-8.4667,140.3333,82.45,76,68,13.0,broken clouds
457,Kloulklubed,PW,7.0419,134.2556,86.5,70,100,7.52,overcast clouds
458,Wrzesnia,PL,52.3251,17.5652,57.0,97,68,6.69,broken clouds
459,Mayo,US,38.8876,-76.5119,77.67,96,1,0.0,clear sky
460,Hervey Bay,AU,-25.2986,152.8535,73.51,62,13,9.91,few clouds
461,Houma,US,29.5958,-90.7195,82.4,91,72,5.55,broken clouds
462,Mangrol,IN,21.1167,70.1167,82.56,73,97,14.52,overcast clouds
463,Manutuke,NZ,-38.6833,177.9167,56.98,56,7,4.59,clear sky
464,Japura,ID,-0.3167,102.35,88.3,55,54,5.86,broken clouds
465,Itarema,BR,-2.9248,-39.9167,79.05,82,0,16.75,clear sky
466,Palmer,US,42.1584,-72.3287,75.07,82,91,6.13,overcast clouds
467,Altamira,BR,-3.2033,-52.2064,75.31,66,48,2.06,scattered clouds
468,Omboue,GA,-1.5746,9.2618,73.51,87,14,6.64,few clouds
469,Nyagan,RU,62.1406,65.3936,60.67,54,6,7.23,clear sky
470,Lompoc,US,34.6391,-120.4579,70.79,84,1,5.75,clear sky
471,Alihe,CN,50.5667,123.7167,63.82,71,100,4.18,overcast clouds
472,Harper,LR,4.375,-7.7169,76.93,80,96,11.99,overcast clouds
473,Kushmurun,KZ,52.4503,64.6311,60.6,69,13,13.0,few clouds
474,San-Pedro,CI,4.7485,-6.6363,75.78,87,100,8.16,light rain
475,Broken Hill,AU,-31.95,141.4333,76.71,15,1,27.63,clear sky
476,Dundee,GB,56.5,-2.9667,54.81,99,0,4.61,clear sky
477,La Palma,US,33.8464,-118.0467,87.49,76,1,4.0,clear sky
478,Tessalit,ML,20.1986,1.0114,86.16,43,5,6.49,clear sky
479,Menongue,AO,-14.6585,17.691,51.37,35,0,4.29,clear sky
480,Havre-Saint-Pierre,CA,50.2334,-63.5986,62.6,100,75,0.0,broken clouds
481,Cayenne,GF,4.9333,-52.3333,75.24,91,75,3.44,moderate rain
482,Pisco,PE,-13.7,-76.2167,59.05,88,40,1.14,scattered clouds
483,Narsaq,GL,60.9167,-46.05,50.22,65,92,4.09,overcast clouds
484,Kupino,RU,54.3663,77.2981,65.44,77,81,4.54,broken clouds
485,Egvekinot,RU,66.3167,-179.1667,46.56,64,86,7.18,overcast clouds
486,Arlit,NE,18.7369,7.3853,92.5,12,67,14.38,broken clouds
487,Oranjemund,NA,-28.55,16.4333,58.53,60,3,11.25,clear sky
488,Abnub,EG,27.2696,31.1511,79.02,43,0,8.66,clear sky
489,Vung Tau,VN,10.346,107.0843,84.36,76,88,11.54,overcast clouds
490,Penhold,CA,52.1334,-113.8687,65.14,72,90,4.61,overcast clouds
491,Ngunguru,NZ,-35.6167,174.5,61.16,81,25,11.68,light rain
492,Uthal,PK,25.8072,66.6219,84.33,65,21,5.28,few clouds
493,Brasilia,BR,-15.7797,-47.9297,59.92,67,0,2.3,clear sky
494,Sheboygan,US,43.7333,-87.9334,72.16,86,40,1.01,scattered clouds
495,Mnogovershinnyy,RU,53.9353,139.9242,67.73,44,2,2.08,clear sky
496,Katsuura,JP,35.1333,140.3,91.51,74,91,8.72,overcast clouds
497,Marakkanam,IN,12.2,79.95,88.81,58,100,10.69,overcast clouds
498,Nelipyno,UA,48.561,23.0315,64.26,73,2,3.33,clear sky
499,Mananara,MG,-16.1667,49.7667,66.11,86,42,4.72,scattered clouds
500,Ambulu,ID,-8.345,113.6058,84.36,58,36,11.63,scattered clouds
501,Carahue,CL,-38.7,-73.1667,37.6,97,4,0.49,clear sky
502,Lazaro Cardenas,MX,17.9583,-102.2,77.99,87,60,5.53,broken clouds
503,Port Augusta,AU,-32.5,137.7667,57.7,56,100,19.04,overcast clouds
504,Gazojak,TM,41.1875,61.4036,86.56,24,0,10.4,clear sky
505,Dabeiba,CO,7.0017,-76.2672,73.98,100,100,1.41,light rain
506,Pangnirtung,CA,66.1451,-65.7125,39.88,97,100,2.1,light rain
507,Mazarron,ES,37.5992,-1.3149,78.44,61,100,8.59,overcast clouds
508,San Cristobal,VE,7.7669,-72.225,65.01,96,100,3.13,overcast clouds
509,Camacha,PT,33.0833,-16.3333,69.53,83,20,6.91,few clouds
510,Doha,QA,25.2867,51.5333,98.58,49,0,2.3,clear sky
511,Benjamin Constant,BR,-4.3831,-70.0311,71.73,79,80,2.19,broken clouds
512,Shymkent,KZ,42.3,69.6,81.19,21,0,2.24,clear sky
513,Melfi,IT,40.9965,15.6514,76.41,33,43,3.71,scattered clouds
514,Ocean City,US,39.2776,-74.5746,77.29,89,4,7.0,clear sky
515,Big Bend,SZ,-26.8167,31.9333,54.0,88,14,3.2,few clouds
516,Praia Da Vitoria,PT,38.7333,-27.0667,70.05,94,20,4.81,few clouds
517,Kapit,MY,2.0167,112.9333,94.68,45,38,2.73,scattered clouds
518,Petropavlovsk-Kamchatskiy,RU,53.0452,158.6483,64.99,55,20,11.18,few clouds
519,Qaqortoq,GL,60.7167,-46.0333,50.5,74,92,2.95,overcast clouds
520,Kieta,PG,-6.2167,155.6333,83.05,74,13,6.06,light rain
521,Alta Floresta,BR,-9.8756,-56.0861,70.2,42,0,2.44,clear sky
522,Kushima,JP,31.4583,131.2333,78.31,96,100,2.48,light rain
523,Itaituba,BR,-4.2761,-55.9836,81.05,48,95,2.26,overcast clouds
524,Mayor Pablo Lagerenza,PY,-19.9309,-60.7718,55.58,63,58,7.83,broken clouds
525,Vostok,RU,46.4856,135.8833,70.27,36,61,3.94,broken clouds
526,Smithers,CA,54.7804,-127.1743,66.52,45,75,19.57,broken clouds
527,Gemena,CD,3.25,19.7667,70.56,97,100,2.26,overcast clouds
528,Jalingo,NG,8.8833,11.3667,71.04,97,92,3.89,overcast clouds
529,Sao Paulo De Olivenca,BR,-3.3783,-68.8725,73.74,84,65,1.88,broken clouds
530,Sisimiut,GL,66.9395,-53.6735,42.6,91,69,8.75,broken clouds
531,Batagay,RU,67.6333,134.6333,83.71,27,92,10.69,overcast clouds
532,Maldonado,UY,-34.6667,-54.9167,46.22,74,72,5.53,broken clouds
533,Banjar,ID,-8.19,114.9675,84.06,53,11,3.02,few clouds
534,Oyon,PE,-10.6681,-76.7731,42.8,78,5,8.3,clear sky
535,Geilo,NO,60.5333,8.2076,49.55,89,30,4.7,scattered clouds
536,Poso,ID,-1.3959,120.7524,87.58,61,34,6.13,scattered clouds
537,De-Kastri,RU,51.4667,140.7833,65.98,58,11,6.33,few clouds
538,Maceio,BR,-9.6658,-35.7353,72.84,94,90,1.14,overcast clouds
539,Whitianga,NZ,-36.8333,175.7,60.03,78,25,9.08,scattered clouds
540,Necochea,AR,-38.5473,-58.7368,39.88,61,6,10.25,clear sky
541,Khilok,RU,51.3674,110.4676,76.42,32,97,3.27,overcast clouds
542,Barra Do Corda,BR,-5.5,-45.25,75.61,58,1,1.48,clear sky
543,Urengoy,RU,65.9667,78.3667,59.58,54,0,11.34,clear sky
544,Kasulu,TZ,-4.5767,30.1025,67.66,49,20,1.92,few clouds
545,Deep River,CA,46.1001,-77.4995,73.15,99,89,2.8,overcast clouds
546,Kaeo,NZ,-35.1,173.7833,61.32,76,43,7.54,scattered clouds
547,Verkhnebakanskiy,RU,44.8492,37.6572,70.63,73,29,0.54,scattered clouds
548,Along,IN,28.1667,94.7667,83.46,91,92,0.94,overcast clouds
549,Weyburn,CA,49.6668,-103.8511,57.42,67,45,9.22,scattered clouds
550,Maraa,BR,-1.8333,-65.3667,72.46,91,62,2.86,broken clouds
551,Sao Felix Do Xingu,BR,-6.6447,-51.995,72.05,45,0,2.53,clear sky
552,Parker,US,32.7668,-97.8003,86.41,64,60,1.01,broken clouds
553,Kathu,TH,7.9178,98.3332,82.22,81,100,17.49,overcast clouds
554,Porto Velho,BR,-8.7619,-63.9039,77.05,73,46,2.3,scattered clouds
555,Birao,CF,10.2849,22.7882,70.88,96,100,4.47,overcast clouds
556,Myshkin,RU,57.7897,38.4545,65.16,98,100,6.04,overcast clouds
557,Stawell,AU,-37.05,142.7667,49.82,94,100,14.52,light rain
558,Roseau,DM,15.3017,-61.3881,81.01,82,98,11.52,overcast clouds
559,Belyy Yar,RU,53.6039,91.3903,75.09,60,0,2.24,clear sky
560,Antonina,BR,-25.4286,-48.7119,66.2,94,100,1.95,overcast clouds
561,Marzuq,YE,14.4,46.4667,80.4,56,39,8.46,scattered clouds
562,Xapuri,BR,-10.6517,-68.5044,74.52,48,10,2.06,clear sky
563,Barao De Melgaco,BR,-16.1944,-55.9675,77.52,50,21,5.48,few clouds
564,Charlestown,AU,-32.95,151.6667,78.22,42,0,5.99,clear sky
565,Isla Aguada,MX,18.7833,-91.4667,84.79,74,16,12.24,few clouds
566,Bantry,IE,51.6833,-9.45,60.28,99,100,9.64,light rain
567,Takoradi,GH,4.8845,-1.7554,74.55,89,56,5.61,broken clouds
568,Suluktu,KG,39.9337,69.57,76.48,18,0,5.82,clear sky
569,Kamaishi,JP,39.2667,141.8833,77.95,89,100,3.11,overcast clouds
570,Chulumani,BO,-16.4096,-67.5263,61.02,85,97,0.43,overcast clouds
571,Coquimbo,CL,-29.9533,-71.3436,49.73,87,0,5.75,clear sky
572,San Jose,US,37.3394,-121.895,77.05,65,1,1.99,clear sky
573,Saint Simons,US,31.1352,-81.3901,82.44,80,1,6.91,clear sky
574,Sorland,NO,67.667,12.6934,54.57,95,100,12.17,light rain
575,Arari,BR,-3.4536,-44.78,76.06,86,44,3.02,scattered clouds
576,Caxito,AO,-8.5785,13.6643,72.25,82,98,1.95,overcast clouds
577,Kanniyakumari,IN,8.0833,77.5667,83.8,70,100,20.15,overcast clouds
578,Kruisfontein,ZA,-34.0033,24.7314,48.96,29,0,8.86,clear sky
579,Viedma,AR,-40.8135,-62.9967,44.1,78,3,13.15,clear sky
580,Santa Cruz De La Palma,ES,28.6835,-17.7642,71.74,73,0,2.3,clear sky
581,Aripuana,BR,-9.1667,-60.6333,73.87,45,4,2.53,clear sky
582,South River,US,40.4465,-74.386,75.34,94,99,1.01,overcast clouds
583,Iqaluit,CA,63.7506,-68.5145,44.33,76,90,3.44,overcast clouds
584,Almaty,KZ,43.25,76.95,76.91,31,3,6.71,clear sky
585,Riyadh,SA,24.6877,46.7219,91.45,12,0,3.44,clear sky
586,Greensburg,US,40.3015,-79.5389,75.2,90,75,3.0,broken clouds
587,Novo Oriente,BR,-5.5344,-40.7742,75.11,64,82,4.09,broken clouds
588,Bontang,ID,0.1333,117.5,83.05,72,78,6.96,broken clouds
589,Gurupi,BR,-11.7292,-49.0686,75.09,36,92,2.93,overcast clouds
590,Bogalusa,US,30.791,-89.8487,81.73,88,1,0.0,clear sky
591,Dubbo,AU,-32.25,148.6167,71.73,49,75,23.02,broken clouds
592,Chihuahua,MX,28.5,-106.0,77.95,44,79,3.15,broken clouds
593,Muros,ES,42.7762,-9.0603,63.99,89,10,8.43,clear sky
594,Kostek,RU,43.3439,46.8541,90.57,38,81,6.58,broken clouds
595,Grindavik,IS,63.8424,-22.4338,53.56,93,0,3.44,clear sky
596,Kologriv,RU,58.8275,44.3178,68.02,84,100,7.65,overcast clouds
597,Sao Jose Da Coroa Grande,BR,-8.8978,-35.1478,73.51,92,65,7.85,broken clouds
598,Salinas,US,36.6777,-121.6555,72.52,81,1,3.44,clear sky
599,Atambua,ID,-9.1061,124.8925,84.2,54,31,2.59,scattered clouds
600,Samarai,PG,-10.6167,150.6667,78.87,86,44,14.88,scattered clouds
601,Sharanga,RU,57.1775,46.5396,69.26,70,93,10.11,overcast clouds
602,Barcelos,PT,41.5388,-8.6151,66.92,88,0,2.46,clear sky
603,Changde,CN,29.0464,111.6783,79.92,82,100,2.37,overcast clouds
604,Grootfontein,NA,-19.5667,18.1167,38.77,60,3,2.3,clear sky
605,Kulhudhuffushi,MV,6.6221,73.07,82.85,77,100,18.1,overcast clouds
606,Lakselv,NO,70.0513,24.9718,58.82,88,0,12.66,clear sky
607,Toamasina,MG,-18.1667,49.3833,64.4,94,40,2.3,scattered clouds
608,Macau,MO,22.2006,113.5461,89.71,84,20,6.91,moderate rain
609,Lagos,NG,6.5833,3.75,75.52,95,92,5.35,light rain
610,Bilaspur,IN,22.0833,82.15,85.53,66,99,9.26,overcast clouds
611,Marawi,PH,7.9986,124.2928,82.87,61,85,3.87,overcast clouds
612,Nanortalik,GL,60.1432,-45.2371,46.09,75,86,6.85,overcast clouds
613,Leshukonskoye,RU,64.8989,45.7622,65.14,60,70,8.55,broken clouds
614,Najran,SA,17.4924,44.1277,86.65,20,63,5.3,broken clouds
615,Yining,CN,29.0361,114.5636,88.32,76,100,1.48,light rain
616,Xuddur,SO,4.1213,43.8894,73.83,63,25,19.64,scattered clouds
617,Morehead,US,37.2711,-87.1764,81.86,85,1,4.61,clear sky
618,Sangar,RU,63.9242,127.4739,65.07,79,100,2.48,light rain
619,Adre,TD,13.4667,22.2,72.19,86,100,3.65,overcast clouds
620,Krasnoselkup,RU,65.7,82.4667,57.04,52,16,14.9,few clouds
621,Lavumisa,SZ,-27.31,31.892,52.56,90,11,4.41,few clouds
622,Mapiripan,CO,2.8892,-72.1256,72.79,93,99,2.1,overcast clouds
623,Saint-Joseph,RE,-21.3667,55.6167,71.1,80,16,8.37,few clouds
624,Oudtshoorn,ZA,-33.5907,22.2014,46.76,27,0,6.26,clear sky
625,Fairbanks,US,64.8378,-147.7164,57.16,87,75,1.01,moderate rain
626,Punuare,HN,14.7333,-85.9667,81.36,97,19,2.15,few clouds
627,Dawei,MM,14.0833,98.2,85.5,72,100,5.88,moderate rain
628,Whyalla,AU,-33.0333,137.5833,55.29,88,90,20.71,overcast clouds
629,Cheyenne,US,41.14,-104.8203,71.76,25,1,5.75,clear sky
630,Zyryanskoye,RU,56.8306,86.6258,74.03,69,86,6.35,overcast clouds
631,Belmonte,BR,-15.8631,-38.8828,66.7,86,13,3.18,few clouds
632,Wattegama,LK,6.7989,81.4808,86.92,58,100,3.06,overcast clouds
633,Kendari,ID,-3.945,122.4989,81.46,77,100,5.7,overcast clouds
634,Manyana,BW,-23.4,21.7167,48.63,42,73,10.4,broken clouds
635,Anaconda,US,46.1285,-112.9423,70.79,56,92,6.78,overcast clouds
636,Angoram,PG,-4.0625,144.0661,86.13,69,79,4.43,broken clouds
637,Vallenar,CL,-28.5708,-70.7581,54.27,61,0,0.51,clear sky
638,Bowen,AU,-20.0167,148.2333,75.42,66,38,17.92,scattered clouds
639,Marshall,US,34.3834,-86.3333,81.37,74,1,4.61,clear sky
640,Balabac,PH,7.9868,117.0645,87.03,67,67,13.87,heavy intensity rain
641,Nibbar,TN,36.2941,8.7666,81.28,16,20,4.61,few clouds
642,Tirano,IT,46.2154,10.1679,67.71,77,9,6.35,clear sky
643,Ketchikan,US,55.3422,-131.6461,61.27,72,40,0.0,scattered clouds
644,Boulder,US,40.0833,-105.3505,77.67,28,1,7.0,clear sky
645,Thinadhoo,MV,0.5333,72.9333,81.27,72,90,8.5,moderate rain
646,Tecpan,GT,14.7623,-90.9947,56.52,94,52,4.29,broken clouds
647,Orlik,RU,52.5178,99.825,73.62,42,39,1.12,scattered clouds
648,Kolno,PL,53.4115,21.9291,51.91,93,47,5.75,scattered clouds
649,Upington,ZA,-28.4478,21.2561,39.58,41,0,1.14,clear sky
650,Sohbatpur,PK,28.5202,68.5434,96.46,40,1,7.85,clear sky
651,Bekhtery,UA,46.251,32.2927,70.23,61,90,13.27,overcast clouds
652,Nileshwar,IN,12.25,75.1,81.45,77,75,8.63,broken clouds
653,Balaipungut,ID,1.05,101.2833,86.41,73,90,5.53,overcast clouds
654,Aktas,KZ,49.7789,72.9608,60.55,51,65,8.93,broken clouds
655,Vanavara,RU,60.34,102.2797,79.39,30,40,4.38,scattered clouds
656,Glen Avon,US,34.0117,-117.4848,93.58,47,1,1.99,clear sky
657,Udachnyy,RU,66.4167,112.4,69.3,45,3,12.82,clear sky
658,Korcula,HR,42.9622,17.1369,78.6,66,56,1.86,broken clouds
659,Jijiga,ET,9.35,42.8,65.91,71,48,21.83,scattered clouds
660,Powell River,CA,49.8496,-124.5361,75.47,76,81,7.25,broken clouds
661,Erice,IT,38.037,12.5865,80.37,28,0,8.05,clear sky
662,Belaya Gora,RU,68.5333,146.4167,80.62,30,66,5.93,broken clouds
663,Amuntai,ID,-2.4177,115.2494,94.82,42,64,1.05,broken clouds
664,Bambanglipuro,ID,-7.95,110.2833,84.04,55,23,19.01,few clouds
665,Mango,US,27.9797,-82.3065,80.46,92,1,0.0,clear sky
666,San Quintin,MX,30.4833,-115.95,68.85,85,12,7.11,few clouds
667,Mogadishu,SO,2.0371,45.3438,76.87,69,40,13.8,scattered clouds
